name,lat,lng,type,state,district,phone
"Regional Blood Bank, East Khasi Hills",25.5849929,91.8840072,blood_bank,Meghalaya,EAST KHASI HILLS,3642591629
Blood Bank - Rastrothana Trust,12.9545656,77.5653115,blood_bank,Karnataka,BENGALURU URBAN,8026610916
"Indian Red Cross Society, Blood Bank (Khaleelwadi)",18.6734302,78.1040509,blood_bank,Telangana,Nizamabad,8462222002
Kims Research Foundation Hospital Blood Bank,16.5910889,82.0224669,blood_bank,Andhra Pradesh,East Godavari,08856 237996; 08856 237997; 08856 237998
Sant Baba Rangi Ram Ji Charitable Hospital Blood Bank,31.6752739,75.6570974,blood_bank,Punjab,HOSHIARPUR,01886280266; 01886225025
Agra City Blood Bank,27.1791889,78.0023608,blood_bank,Uttar Pradesh,AGRA,5622262122
Friends Blood Bank,10.8015533,78.6840697,blood_bank,Tamil Nadu,TIRUCHIRAPPALLI,04312460646
Supratech Voluntary Blood Bank,23.0479402,72.5271143,blood_bank,Gujarat,AHMEDABAD,07940058958; 07940054400; 07940057317
"Odisha Red Cross Blood bank, SDH, Gunupur",19.0709727,83.8092839,blood_bank,Odisha,RAYAGADA,
Blood storage centre,10.1495118,76.2327585,blood_bank,,,
kjd,22.8197524,75.9431528,blood_bank,,,
Shubham Blood Bank,22.7305038,75.8978194,blood_bank,,,9827333573
Shri Satya Sai Blood Bank,22.7196604,75.9016657,blood_bank,,,07312590737
Aware gleneagles Global Hospital;Aware Gleneagles Global Hospital's Blood Bank,17.345958,78.5399126,blood_bank,Telangana,Hyderabad,"040 24111111;04024111111, Extn: 787"
Challa Hospital's Blood Bank,17.439663,78.4507272,blood_bank,Telangana,Hyderabad,4023731215
"Apollo Reach Hospitals - Apollo, Blood Bank",18.4567677,79.1350772,blood_bank,,,
Government General and Chest Hospital's Blood Bank,17.4452682,78.4349719,blood_bank,Telangana,Hyderabad,04023814939
St. Theresa's Hospital's Blood Bank,17.451852,78.4378123,blood_bank,Telangana,Hyderabad,04023802255; 04023812288
Life Care Voluntary Blood Bank,18.4434185,79.1297201,blood_bank,Telangana,Karimnagar,
Employees State Insurance Corporation Medical College Hospital's Blood Bank,17.4479524,78.4398884,blood_bank,Telangana,Hyderabad,04067872049
Kamineni Institute of Medical Sciences Blood Bank,17.1989768,79.2126467,blood_bank,Telangana,Nalgonda,
Usha Mullapudi Cardiac Centre's Blood Bank,17.5207011,78.4293033,blood_bank,Telangana,Hyderabad,"04023090609, Extn: 221&224"
Continental Hospital's Blood Bank,17.4175248,78.3394005,blood_bank,Telangana,Hyderabad,04067000000; Extn:1105
Yashoda Super Speciality Hospital's Blood Bank,17.424535,78.456934,blood_bank,Telangana,Hyderabad,4023319999
"Sarala, Blood Bank",17.5562482,80.6175759,blood_bank,Telangana,Khammam,
MNJ Institute of Oncology and Regional Cancer Centre's Blood Bank,17.3988988,78.4619683,blood_bank,,,
Global Hospital's Blood Bank,17.4052516,78.4630698,blood_bank,Telangana,Hyderabad,04023244444; 04030644444
The Govt. Niloufer Hospital's Blood Bank,17.3988911,78.4607211,blood_bank,,,
Health Agriculture Rural Development Society's (H.A.R.D) Blood Bank,17.396155,78.4630908,blood_bank,Telangana,Hyderabad,04023300859; 04023300959
MaxCure MediCiti Hospital's Blood Bank,17.4066692,78.4715277,blood_bank,Telangana,Hyderabad,04023231111
Rudhira Voluntary Blood Bank,17.4060166,78.4782815,blood_bank,Telangana,Hyderabad,04023220222
Lions Club Matadin Goel Blood Bank,17.4031142,78.4796762,blood_bank,Telangana,Hyderabad,04023226624
Apollo Hospital's Blood Bank,17.3994465,78.4791076,blood_bank,Telangana,Hyderabad,04023231380
Sathya Nursing Home's Blood Bank,17.4048085,78.482115,blood_bank,Telangana,Hyderabad,04066753026
Kamineni Health Services Pvt. Ltd's Blood Bank,17.3927149,78.4797567,blood_bank,Telangana,Hyderabad,04066924030; 04066924444
The Government Maternity Hospital's Blood bank,17.3860638,78.4871194,blood_bank,Telangana,Hyderabad,04023305967
Aditya Hospital's Blood Bank,17.3903806,78.4811582,blood_bank,Telangana,Hyderabad,04024763565
Care Hospital's Blood Bank,17.4125081,78.4503483,blood_bank,Telangana,Hyderabad,04030418296
Siva Multi Speciality Hospital's Blood Bank,17.251803,80.1439346,blood_bank,Telangana,Khammam,8742231883
Malla Reddy Institute of Medical Sciences & Hospital's Blood Bank,17.5454217,78.4323245,blood_bank,Telangana,Hyderabad,04023783000; Extn:3106
Malla Reddy Narayana Multispeciality Hospital's Blood Bank,17.5441225,78.4331265,blood_bank,Telangana,Hyderabad,"04023783106; 04023783000, Extn:3106"
Aarohi Blood Bank,17.4112287,78.449771,blood_bank,,,040 23384212
Nizams Institute of Medical Sciences' Blood Bank,17.4218457,78.4519556,blood_bank,Telangana,Hyderabad,04023489722
Lions Club of Hyderabad(East) Bhanji Kheraj's Blood Bank,17.3852575,78.4800544,blood_bank,Telangana,Hyderabad,4024745243
Institute of Transfusion Medicine and Research's Blood Bank,17.4213083,78.4490816,blood_bank,Telangana,Hyderabad,04023328956
Life Voluntary Blood Bank,17.4930355,78.3977146,blood_bank,Telangana,Hyderabad,04023059222; 04023159222
Ram Hospital's Blood Bank,17.5161381,78.4476989,blood_bank,Telangana,Hyderabad,4023095758
Janani Voluntary Blood Bank,17.4911424,78.3981988,blood_bank,Telangana,Hyderabad,04023150496
Prathima Institute of Medical Science's Blood Bank,18.4983502,79.1511257,blood_bank,Telangana,Karimnagar,08782216500; 08782216555; 08782216380/81
Sri Balaji Blood Bank (A Unit of Sri Balaji Educational Society),17.37538,78.4972186,blood_bank,Telangana,Hyderabad,4064522466
Aster Prime Hospital's Blood Bank,17.437296,78.4462318,blood_bank,Telangana,Hyderabad,4044569973
Kamineni Hospital's Blood Bank,17.3516496,78.5558456,blood_bank,Telangana,Hyderabad,
M.N.R.Blood Bank,17.6223545,78.1270207,blood_bank,Telangana,Medak,
Military Hospital's Blood Bank,17.4722492,78.5169737,blood_bank,Telangana,Hyderabad,4027886559
Sunshine Hospital's Blood Bank,17.441151,78.4870389,blood_bank,Telangana,Hyderabad,04064643345;04043444546
Dr. V.R.K. Hospital's Blood Bank,17.3525892,78.3344266,blood_bank,Telangana,Ranga Reddy,8413235074
Apollo Hospital's Blood Bank,17.4145161,78.4119666,blood_bank,Telangana,Hyderabad,04023607777; Extn:2604
Indian Red Cross Society Blood Bank,17.4050677,78.5086977,blood_bank,Telangana,Hyderabad,4027633087
"Indian Red Cross Society, Blood Bank (Siddipet)",18.0988122,78.841466,blood_bank,Telangana,Siddipet,
Rajiv Gandhi Institute of Medical Science's Blood Bank,19.6628912,78.5252979,blood_bank,Telangana,Adilabad,8732224108
Government Mahatma Gandhi Memorial Hospital's Blood Bank,17.989684,79.5931886,blood_bank,Telangana,Warangal,
Citizens Speciality Hospital's Blood Bank,17.4706002,78.3113542,blood_bank,Telangana,Hyderabad,04067191919; 04067192580 Extn:2581/2582
South Central Railway's Hospital,17.4376574,78.5221028,blood_bank,Telangana,Hyderabad,4027789173
Osmania General Hospital's Blood Bank,17.3728426,78.4740262,blood_bank,Telangana,Hyderabad,4024600146
BBR Super Speciality Hospital's Blood Bank,17.4642052,78.4571403,blood_bank,Telangana,Hyderabad,04023773333;04023778800
Care Hospital's Blood Bank,17.3853799,78.4747083,blood_bank,Telangana,Hyderabad,4030417445
Singareni Collieries Co. Ltd's Blood Bank,17.9370537,80.7985599,blood_bank,Telangana,Khammam,
Mahavir Hospital's Blood Bank,17.4036094,78.4570478,blood_bank,Telangana,Hyderabad,4023497377
Apollo DRDO Hospital's Blood Bank,17.3425276,78.507126,blood_bank,Telangana,Hyderabad,4024342222
New Life Educational Society's Blood Bank,17.3751081,78.4845451,blood_bank,Telangana,Hyderabad,04024575757; 04064558864
Sai Prasad Orthopedic Hospital's Blood Bank,17.1472902,79.6222202,blood_bank,Telangana,Nalgonda,8684223223
"Indian Red Cross Society , Blood Bank RCH-II",17.1413338,79.6066399,blood_bank,Telangana,Nalgonda,8684224699
Maheshwara Medical College and Maheshwara Hospital's Blood Bank,17.5622514,78.2052702,blood_bank,Telangana,Medak,
Princess Esra Hospital's Blood Bank,17.3564819,78.4745412,blood_bank,Telangana,Hyderabad,4065875989
Government Hospital,17.725297,79.1502426,blood_bank,Telangana,Warangal,
"Indian Red Cross Society Jagityal, Blood Bank",18.7984035,78.920671,blood_bank,,,
Bharat Heavy Electricals Limited Hospital's Blood Bank,17.4966821,78.3054185,blood_bank,Telangana,Medak,4023184386
SLMS Hospital's Blood Bank,17.3759969,78.5569252,blood_bank,Telangana,Hyderabad,4064579998
"Indian Red Cross Society, Blood Bank (Nalgonda)",17.0549948,79.2734385,blood_bank,Telangana,Nalgonda,
Yashoda Hospital (A Unit of Datta Chandra Hospital Pvt. Ltd.)'s Blood Bank,17.4419302,78.4972045,blood_bank,Telangana,Hyderabad,04023319999; 04024555555; 04027713333
Jyothi Hospital's Blood Bank,16.8686822,79.566797,blood_bank,Telangana,Nalgonda,
Star Hospital's Blood Bank,17.4157308,78.4455039,blood_bank,Telangana,Hyderabad,"04044777777,Extn:603"
Singareni Collieries Company Limited Area Hospital's Blood Bank,18.4013814,79.8510629,blood_bank,Telangana,Warangal,8713248104
"Indian Red Cross Society, Blood Bank (Hanumakonda)",17.9938128,79.5406629,blood_bank,Telangana,Warangal,8702456765
Owaisi Medical and Research Centre,17.3410119,78.5069402,blood_bank,Telangana,Hyderabad,04064638871; 04024343129; 04024323723
Mamata General Hospital's Blood Bank,17.2386433,80.1608983,blood_bank,Telangana,Khammam,8742230864
Himabindhu Multispeciality Hospital's Blood Bank,17.351288,78.5092626,blood_bank,Telangana,Hyderabad,4064558828
Sai Vani Super Speciality Hospital's Blood Bank,17.4109695,78.4835547,blood_bank,Telangana,Hyderabad,
"Mythri Charitable Trust, Blood Bank and Transfusion Centre",17.3914019,78.496715,blood_bank,Telangana,Hyderabad,04027550238; 04066822271
"Indian Red Cross Society, Blood Bank (Mancherial)",18.8726523,79.4446921,blood_bank,Telangana,Adilabad,08736259259; 08736252259
ADRM Hospital's Blood Bank,17.398438,78.5360536,blood_bank,Telangana,Hyderabad,4027035588
Bhaskar Medical College and General Hospital's Blood Bank,17.3325794,78.2999226,blood_bank,Telangana,Ranga Reddy,"08413235446, Extn: 214"
RTC Hospital's Blood Bank,17.4254912,78.5304826,blood_bank,Telangana,Hyderabad,4027018691
Asian Voluntary Blood Bank,17.4799653,78.5573886,blood_bank,Telangana,Hyderabad,
Medicity Institute of Medical Sciences's Blood Bank,17.6156453,78.548322,blood_bank,Telangana,Ranga Reddy,"08418256256, Extn:238"
Singareni Collieries Co.Ltd's Blood Bank,18.74634,79.5189075,blood_bank,Telangana,Karimnagar,8728244362
Rajyalakshmi Charitable Trust Blood Bank,17.3674201,78.5308313,blood_bank,Telangana,Hyderabad,4064597760
Ayaan Institute of Medical Sciences (AIMS)'s Blood Bank,17.3157119,78.2562697,blood_bank,Telangana,Ranga Reddy,
"V.T.Thakur Memorial Rotary, Blood Bank",18.327977,78.3383621,blood_bank,Telangana,Nizamabad,8468222222
Institute of Preventive Medicine's Blood Bank,17.3939614,78.4902549,blood_bank,Telangana,Hyderabad,04027557733
Rakshita Voluntary Blood Bank,17.3813833,78.4806633,blood_bank,Telangana,Hyderabad,04065263309
Andhra Mahila Sabha Durgabhai Deshmukh Hospital's Blood Bank,17.4023771,78.5103285,blood_bank,Telangana,Hyderabad,04027656969; 04027681158
Chalmeda Anand Rao Institute of Medical Sciences Blood Bank,18.4531135,79.1649538,blood_bank,Telangana,Karimnagar,08782285565;08782285318
Sanjeevini Blood Bank,17.4079642,78.4960619,blood_bank,Telangana,Hyderabad,04027667500; 04065522343
Janani Voluntary Blood Bank (A Unit of Janani Organization),17.4402541,78.4966613,blood_bank,Telangana,Hyderabad,4065603222
ESI Hospital's Blood Bank,17.4481162,78.4387726,blood_bank,Telangana,Hyderabad,04023701232; 04023701233
Asian Institute of Gastroentrology's Blood Bank,17.4211873,78.4566266,blood_bank,Telangana,Hyderabad,4023378888
Krishna Institute of Medical Sciences' Blood Bank,17.4368571,78.4828064,blood_bank,Telangana,Hyderabad,04044186253; 04044186255
Ozone Hospital's Blood Bank,17.3594426,78.5451503,blood_bank,Telangana,Hyderabad,04030108109; 04064556533
Basavatarakam Indo-American Cancer Hospital and Research Institute's Blood Bank,17.4170702,78.4303907,blood_bank,Telangana,Hyderabad,4023551235
"Government District Head Quarters Hospital, Blood Bank",18.4421167,79.1315201,blood_bank,Telangana,Karimnagar,08782240223;08782240337
Premier Hospital's Blood Bank,17.3916073,78.4269373,blood_bank,Telangana,Hyderabad,4023774469
Government District Head Quarter Hospital Nalgonda,17.0560076,79.2781846,blood_bank,Telangana,Nalgonda,
The APVVP District Head Quarters Hospital's Blood Bank,17.6264421,78.0818872,blood_bank,Telangana,Sangareddy,
Vivekananda Environmental International Society Social Service Blood Bank,17.3910672,78.4340371,blood_bank,Telangana,Hyderabad,4064606048
"Mother Voluntary, Blood Bank",17.9912363,79.5939249,blood_bank,Telangana,Warangal,
S.B.Voluntary's Blood Bank,18.6739672,78.102791,blood_bank,Telangana,Nizamabad,8462646430
Genetic Products Charitable Association's Blood Bank,17.4249275,78.4546398,blood_bank,Telangana,Hyderabad,04023411658; 04023403882
SVS Medical College Hospital's Blood Bank,16.7572541,78.0427471,blood_bank,Telangana,Mahbubnagar,9958758150
Sri Devi Charitable Trust Blood Bank,17.4249832,78.5358524,blood_bank,Telangana,Hyderabad,04027016016
Jeevadhara Voluntary Blood Bank (A Unit of Jeevadhaara Society),17.435467,78.5029055,blood_bank,Telangana,Hyderabad,04065996696; 04027707088
Lions Club Blood Bank,17.1415619,79.6066439,blood_bank,Telangana,Nalgonda,8684224699
Saint Anns Hospital's Blood Bank,17.9810407,79.5258893,blood_bank,Telangana,Warangal,
Thalassemia and Sickle Cell Society Vuppala Venkaiah Memorial Blood Bank,17.3308953,78.4400466,blood_bank,Telangana,Hyderabad,
Rudhira Voluntary's Blood Bank,17.2479536,80.1490188,blood_bank,Telangana,Khammam,8742220666
King George Hospital (KGH) Blood Bank,17.7086522,83.304622,blood_bank,Andhra Pradesh,VISAKHAPATNAM,0891 2564891
Government Victoria Hospital Blood Bank- Visakhapatnam,17.698827,83.2980643,blood_bank,Andhra Pradesh,VISAKHAPATNAM,0891 2562637
INHS Kalyani Blood Bank,17.6872253,83.2509603,blood_bank,Andhra Pradesh,VISAKHAPATNAM,0891 2814028
Indian Red Cross Society Component Blood Bank,16.7119489,81.0947549,blood_bank,Andhra Pradesh,WEST GODAVARI,08812 224722
Maharaja Institute of Medical Sciences Blood Bank,18.1461054,83.442408,blood_bank,Andhra Pradesh,VIZIANAGARAM,08922 244394
Palakol Voluntary Blood Bank,16.5138702,81.7268524,blood_bank,Andhra Pradesh,WEST GODAVARI,08814 222678
Indian Red Cross Society Blood Bank - Kakinada,16.9700692,82.2276516,blood_bank,Andhra Pradesh,EAST GODAVARI,0884 2385800
Katuri Medical College and Hospital Blood Bank,16.2278299,80.3102624,blood_bank,Andhra Pradesh,GUNTUR,0863 2288555; 0863 2288556 - 234
Government General Hospital Blood Bank -Kurnool,15.8191145,78.0398208,blood_bank,Andhra Pradesh,KURNOOL,
Saint Joseph General Hospital Blood Bank,16.2977136,80.4409142,blood_bank,Andhra Pradesh,GUNTUR,0863 2322700; 0863 2320386
Government Hospital Blood Bank - Tenali,16.2447749,80.6312518,blood_bank,Andhra Pradesh,GUNTUR,
Rudhira Voluntary Blood Bank,16.2434455,80.6463204,blood_bank,Andhra Pradesh,GUNTUR,08644 231222; 08644 654123
APVVP- Andhra Pradesh Vaidya Vidhana Parishad Area Hospital Blood Bank- Proddatur,14.7416855,78.551074,blood_bank,Andhra Pradesh,YSR,
Kanamarlapudi Koteswara Rao Indian Red Cross Society Blood Bank,14.9060672,79.9914189,blood_bank,Andhra Pradesh,SPSR NELLORE,08626 244766
PESIMSR Blood Bank.,12.7903944,78.3656046,blood_bank,Andhra Pradesh,Chittoor,08570 256737
Viswa Bharathi Blood Bank,15.81373,78.0375879,blood_bank,Andhra Pradesh,Kurnool,08518 22294
Narayana Medical College & Hospital Blood Bank,14.4271648,80.0131213,blood_bank,Andhra Pradesh,SPSR NELLORE,0861 2317963
Narayana Medical College & Hospital Blood Bank,14.4250769,80.0136463,blood_bank,Andhra Pradesh,SPSR NELLORE,0861 2317963
Good Samaritan's Blood Bank,16.6964834,81.0948515,blood_bank,Andhra Pradesh,WEST GODAVARI,08812 246430; 08812 246947
Manipal Hospital Bloodbank,16.4844364,80.6169797,blood_bank,Andhra Pradesh,GUNTUR,0866 2489700 - 102
NRI Medical College and General Hospital's Blood Bank,16.4148755,80.5573368,blood_bank,Andhra Pradesh,GUNTUR,08645 236777; 08645 237401; 08645 230101
Vijaya Sri Blood  Bank,16.5129072,80.6356533,blood_bank,Andhra Pradesh,KRISHNA,0866 2433199
Lions Blood Bank,16.5101286,80.6347735,blood_bank,Andhra Pradesh,KRISHNA,0866 2434417
Lions District 316D Blood Bank,16.5102906,80.632503,blood_bank,Andhra Pradesh,KRISHNA,0866 2573636
Bethesda Blood Bank,16.5129715,80.6326807,blood_bank,Andhra Pradesh,KRISHNA,0866 2435888
Suraksha Voluntary Blood Bank,16.5138915,80.6329047,blood_bank,Andhra Pradesh,KRISHNA,0866 2434499
Rotary Red Cross Blood Bank,16.5184013,80.6246361,blood_bank,Andhra Pradesh,KRISHNA,0866 2570082; 0866 6464002
South Central Railway Hospital Blood Bank,15.1729441,77.3661545,blood_bank,Andhra Pradesh,ANANTAPUR,08552 227166
District Headquarters Hospital Blood Bank- Vizianagaram,18.1108084,83.3865295,blood_bank,Andhra Pradesh,VIZIANAGARAM,
Lions Club of Visakhapatnam Blod Bank Trust,17.7191065,83.3113036,blood_bank,Andhra Pradesh,VISAKHAPATNAM,0891 6692587; 0891 6692580; 0891 6692590
Santhiram Medical College & General Hospital Blood Bank,15.4923697,78.4174431,blood_bank,Andhra Pradesh,KURNOOL,
N.T.R. Memorial Trust Blood Bank,17.7180805,83.3108216,blood_bank,Andhra Pradesh,VISAKHAPATNAM,0891 2565858; 0891 2555858
Seven Hills Hospital Blood Bank,17.717249,83.3095448,blood_bank,Andhra Pradesh,VISAKHAPATNAM,0891 6677777
Apollo Hospital's Blood Bank,17.7170642,83.3092012,blood_bank,Andhra Pradesh,VISAKHAPATNAM,0891 2727272
A. S. Raja Voluntary Blood Bank,17.7203137,83.313049,blood_bank,Andhra Pradesh,VISAKHAPATNAM,0891 2543436;0891 6663436;0891 6644936.
Indian Red Cross Society Blood Bank - Visakhapatnam,17.7101869,83.3092518,blood_bank,Andhra Pradesh,VISAKHAPATNAM,0891 2703953
Anil Neerukonda Hospital Blood Bank,17.9217164,83.4266648,blood_bank,Andhra Pradesh,VISAKHAPATNAM,8912821111- 126
NTR Area Hospital Blood Bank,17.6842872,83.007229,blood_bank,Andhra Pradesh,VISAKHAPATNAM,08924 223340
District Hospital's Blood Bank,17.6845983,83.0067408,blood_bank,Andhra Pradesh,VISAKHAPATNAM,
Visakha Steel General Hospital Blood Bank,17.6626188,83.1448531,blood_bank,Andhra Pradesh,VISAKHAPATNAM,0891 2887722
Rotary Blood Bank (Vishaka Port City Rotary Charitable Trust),17.7116713,83.3033341,blood_bank,Andhra Pradesh,VISAKHAPATNAM,0891 6534635;0891 2506678
S.S.S.I.H.M.S. Blood Bank,14.1516869,77.7770823,blood_bank,Andhra Pradesh,ANANTAPUR,08555 287900
A.P. Vaidya vidhana parishad Area Hospital - IRCS Blood Bank,14.4256107,78.2315934,blood_bank,Andhra Pradesh,YSR,
Indian Red Cross Society Blood bank - RCH -II KADIRI,14.1130746,78.1575537,blood_bank,Andhra Pradesh,ANANTAPUR,08494 221544
Boga Parvathamma Blood Bank,14.4728017,78.8393913,blood_bank,Andhra Pradesh,YSR,
Fathima Institute of Medical Sciences Blood Bank,14.4833502,78.789694,blood_bank,Andhra Pradesh,YSR,08562 200505; 08562 200092
Indian Red Cross Society Blood Bank - Kadapa,14.4838384,78.8190964,blood_bank,Andhra Pradesh,YSR,08562 272829
Area Hospital Blood Bank - Gudivada,16.4345931,80.9917393,blood_bank,Andhra Pradesh,KRISHNA,08674 245040
District Hospital Blood Bank - Nandyal,15.4692195,78.4830773,blood_bank,Andhra Pradesh,KURNOOL,8514221033
Government Hospital Blood Bank - Gudur,14.1467154,79.8487723,blood_bank,Andhra Pradesh,SPSR NELLORE,
Government General Hospital Blood Bank,15.4874735,80.0465207,blood_bank,Andhra Pradesh,PRAKASAM,8592233310
Indian Red Cross Society Blood Bank - Ongole,15.4980808,80.0514923,blood_bank,Andhra Pradesh,PRAKASAM,08592 236093
GMR Varalakshmi Care Hospital Blood Bank,18.4615298,83.6583768,blood_bank,Andhra Pradesh,SRIKAKULAM,08941 253183; 08941 253184
Area Hospital Blood Bank - Chirala,15.8248847,80.3612016,blood_bank,Andhra Pradesh,PRAKASAM,8520026320
Great Eastern Medical School & Hospital Blood Bank,18.3519772,83.9027408,blood_bank,Andhra Pradesh,SRIKAKULAM,
G. S. L. Medical College General Hospital's Blood Bank,17.0666361,81.8831232,blood_bank,Andhra Pradesh,EAST GODAVARI,0883 2484999
Alluri Sitrarama Raju Academy of Medical Sciences' Blood Bank,16.7367194,81.1441344,blood_bank,Andhra Pradesh,WEST GODAVARI,08812 288288; 08812 288299
Government Hospital's Blood Bank,16.7124087,81.0954684,blood_bank,Andhra Pradesh,WEST GODAVARI,08812 220333
Needs Blood Bank,16.298753,80.449288,blood_bank,Andhra Pradesh,GUNTUR,0863 6638222; 0863 6639222
APVVP- Andhra Pradesh Vaidya Vidhana Parishad Area Hospital's Blood Bank - Kavali,14.9133894,79.9925655,blood_bank,Andhra Pradesh,SPSR NELLORE,
Dr. Pinnamaneni Siddhartha Insitiute of Medical Sciences & Research Foundation's (Dr.P.SIMS & RF) Blood Bank,16.5526328,80.8309785,blood_bank,Andhra Pradesh,KRISHNA,08676 257311
Nagarjuna Hospital Blood Bank,16.4873337,80.6842294,blood_bank,Andhra Pradesh,KRISHNA,0866 2554701
Ayush NRI LEPL Health Care Private Limited's Blood Bank,16.5175218,80.6750965,blood_bank,Andhra Pradesh,KRISHNA,0866 2541414
Government District Headquarters Hospital's blood bank,16.1767619,81.138196,blood_bank,Andhra Pradesh,KRISHNA,08672 245040
YSR University General Hospital's Blood Bank,16.5165884,80.6700003,blood_bank,Andhra Pradesh,KRISHNA,0866 2452244;0866 2453488
Sri Venkateswara Institute of Medical sciences Blood Bank,13.6377462,79.4043061,blood_bank,Andhra Pradesh,CHITTOOR,0877 2287777
Life Line Volunytary Blood Bank,15.512265,80.0401492,blood_bank,Andhra Pradesh,PRAKASAM,9247023117
Chaitanya Blood Bank,16.4986987,80.6553715,blood_bank,Andhra Pradesh,KRISHNA,0866 2497977; 0866 645977
Rajiv Gandhi Institute of Medical Sciences Blood Bank,14.4335737,78.8634735,blood_bank,Andhra Pradesh,YSR,08562 225665
NRT Blood Bank,16.236987,80.0454392,blood_bank,Andhra Pradesh,GUNTUR,9542628888
Indian Red Cross Society Blood bank - Markapur,15.7410459,79.255182,blood_bank,Andhra Pradesh,PRAKASAM,08596 223485
TTD Central Hospital Blood Bank,13.6422843,79.4209827,blood_bank,Andhra Pradesh,CHITTOOR,0877 2264622
Indian Red Cross Society Blood Bank - RCH 2,15.623175,77.2690934,blood_bank,Andhra Pradesh,KURNOOL,
Sri Lakshmi Maternity & Surgical Nursing Home Blood Bank,16.300279,80.4498754,blood_bank,Andhra Pradesh,GUNTUR,0863 2219955
Indian Red Cross Society - Ananthapur,14.6549665,77.6097527,blood_bank,Andhra Pradesh,ANANTAPUR,8554246344
District Hospital Blood Bank - Rajahmundry,17.0196239,81.7918704,blood_bank,Andhra Pradesh,EAST GODAVARI,
Govt. Maternity Hospital's Blood Bank,13.6401821,79.4080451,blood_bank,Andhra Pradesh,CHITTOOR,
Government General Hospital's Blood Bank - Nellore,14.4253886,79.9631068,blood_bank,Andhra Pradesh,SPSR NELLORE,
S.V.S. Charitable Trust Blood Bank and Transfusion Centre,13.6356232,79.4209237,blood_bank,Andhra Pradesh,CHITTOOR,0877 6667671
Red Cross Blood Bank - Rapalle,16.0206547,80.8353397,blood_bank,Andhra Pradesh,GUNTUR,08648 223939
Uddaraju Anandaraju Foundation Blood Bank,16.5430952,81.5158591,blood_bank,Andhra Pradesh,WEST GODAVARI,"+91- 8816-230878, 230888"
Indian Red Cross Society Blood Bank - Nellore,14.4439409,79.9799692,blood_bank,Andhra Pradesh,SPSR NELLORE,0861 2320470
SVRRGGH - Model Blood Bank,13.6442796,79.4073209,blood_bank,Andhra Pradesh,CHITTOOR,0877 2286290
Lions Vision Blood Bank,16.2992335,80.4493776,blood_bank,Andhra Pradesh,GUNTUR,0863 2336198; 0863 2336199
NTR Memorial Trust Blood Bank,16.2968434,80.4498862,blood_bank,Andhra Pradesh,GUNTUR,0863 2338444
Gitam Institute of Medical Sciences and Research Blood Bank,17.7844824,83.3749934,blood_bank,Andhra Pradesh,VISAKHAPATNAM,"0891-2866 450, 2538 444"
Rajiv Gandhi Institute of Medical Sciences (RIMS) General Hospital's Blood Bank,18.3124824,83.8885492,blood_bank,Andhra Pradesh,SRIKAKULAM,08942 279679
Swatantra Hospital's Blood Bank,17.0142982,81.777475,blood_bank,Andhra Pradesh,EAST GODAVARI,0883 2464745; 0883 246569878; 0883 2461493
Aswini Hospital's Blood Bank,13.677294,79.3485282,blood_bank,Andhra Pradesh,CHITTOOR,
Indian Red Cross Society Madanapalli RCH 2,13.5568878,78.5010615,blood_bank,Andhra Pradesh,CHITTOOR,08571 222087
Rotary Club Blood Bank,16.9558062,82.2383939,blood_bank,Andhra Pradesh,EAST GODAVARI,0884 2367366
Indian Red Cross Society Blood Bank- Jangareddi gudem,17.13027,81.2919751,blood_bank,Andhra Pradesh,WEST GODAVARI,08821 225305
Government Area General Hospital Blood Bank,17.3549605,82.5412796,blood_bank,Andhra Pradesh,EAST GODAVARI,08854 252333
Government General Hospital's Blood Bank - Guntur,16.2997152,80.443536,blood_bank,Andhra Pradesh,GUNTUR,0863 2220035-280
Indian Red Cross Society Blood Bank - Srikakulam,18.2961708,83.8946713,blood_bank,Andhra Pradesh,SRIKAKULAM,08942 226555; 08942 226111
Dhanwantari Voluntary Blood Bank,17.0078783,81.7852145,blood_bank,Andhra Pradesh,EAST GODAVARI,0833-2473050
"Government General Hospital, Blood Bank.",16.9557048,82.2275638,blood_bank,Andhra Pradesh,EAST GODAVARI,0884 2302008
Indian Red Cross Society Blood Bank - Guntur,16.2936447,80.4326195,blood_bank,Andhra Pradesh,GUNTUR,0863 2215656
Indian Red Cross Society Blood Bank- Narasapuram,16.430116,81.6854484,blood_bank,Andhra Pradesh,WEST GODAVARI,08814 276656
Government General Hospital Blood Bank - Ananthapur,14.6708405,77.5944219,blood_bank,Andhra Pradesh,ANANTAPUR,08554 275024
Dr. Pattabhi Red Cross Blood Bank,16.1868467,81.1447567,blood_bank,Andhra Pradesh,KRISHNA,08672 230605
St.Ann's Hospital Blood Bank,16.5046252,80.6311552,blood_bank,,,0866 2572057
Sri Buddala Narasimhamurty Voluntary Blood Bank,16.7557003,81.6802248,blood_bank,Andhra Pradesh,WEST GODAVARI,08819 225269
Indian Red Cross Society Blood Bank - Narassraopet,16.2358633,80.0485003,blood_bank,Andhra Pradesh,GUNTUR,8647224455
Indian Red Cross Society Blood Bank,18.1187749,83.3892453,blood_bank,Andhra Pradesh,VIZIANAGARAM,08922 272700
ASN Raju Charitable Trust Blood Bank,16.5439694,81.516248,blood_bank,Andhra Pradesh,WEST GODAVARI,08816 225556
Rural Development Trust Hospital Blood Bank,14.6522626,77.6181239,blood_bank,Andhra Pradesh,ANANTAPUR,08559 244259
District Head Quarters Hospital Blood Bank.,13.2171968,79.0969987,blood_bank,Andhra Pradesh,CHITTOOR,
Government Hospital's Blood Bank,16.5873569,82.0084749,blood_bank,Andhra Pradesh,EAST GODAVARI,
Indian Red Cross Society Blood Bank- RCH-II,18.7711493,83.4243245,blood_bank,Andhra Pradesh,VIZIANAGARAM,08963 222088
Indian Red Cross Society Blood Bank - Hindupur,13.8325456,77.4922317,blood_bank,Andhra Pradesh,ANANTAPUR,08556 225900
Viswa Bharathi General Hospital's Blood Bank,15.7428078,77.880334,blood_bank,Andhra Pradesh,KURNOOL,08518 283964
Anjireddy Multi Specality Blood Bank,16.4786905,79.8935866,blood_bank,Andhra Pradesh,GUNTUR,08649 254567
Blood Bank,12.5251217,76.8992492,blood_bank,,,08232228840
MIMS blood bank,12.5250414,76.8993005,blood_bank,,,
Janani Voluntary Blood Bank,17.4689634,78.4783156,blood_bank,Telangana,Medchal Malkajgiri,040 65603222; 04042015222
Ayush Blood Bank,18.440943,79.131983,blood_bank,Telangana,Karimnagar,
Mother and child health's Blood Bank,19.1005105,78.3355174,blood_bank,Telangana,Nirmal,
Jeevan Voluntary Blood Bank,18.00304,79.56986,blood_bank,Telangana,Warangal Urban,
"Kakatiya Voluntary, Blood Bank (A Unit of Life Care Medical and Educatiol Society)",18.0030865,79.5797586,blood_bank,Telangana,Warangal (Urban),
Red Cross Society,16.7507707,77.9938096,blood_bank,Telangana,Mahabubnagar,
Annai Medical College and Hospital's Blood Bank,12.9708398,79.9763516,blood_bank,Tamil Nadu,KANCHIPURAM,4427162100
"Government Head quarters Hospital Blood Bank, Kanchipuram",12.8330351,79.7102791,blood_bank,Tamil Nadu,KANCHIPURAM,04427222307; 044272223308
Government Aringnar Anna Memorial Cancer Hospital Blood Bank,12.8699069,79.7159949,blood_bank,Tamil Nadu,KANCHIPURAM,04427264244; 04427264246
Suburban Hi-tech Blood Bank,19.1836973,72.8492032,blood_bank,Maharashtra,MUMBAI,02228714060; 02228714070
Meenakshi Medical College Hospital and Research Institute Blood Bank,12.8726917,79.7240871,blood_bank,Tamil Nadu,KANCHIPURAM,04427264096; 04427261339
Rajah Muthiah Medical College and Hospital Blood Bank,11.3970844,79.7184089,blood_bank,Tamil Nadu,CUDDALORE,04144238147; Extn28
Kamaraj Government Hospital Blood Bank,11.3942868,79.6992244,blood_bank,Tamil Nadu,CUDDALORE,4144223099
"Government Hospital Blood Bank, Mayiladuthurai",11.1035114,79.6465766,blood_bank,Tamil Nadu,NAGAPATTINAM,4364223451
Vinayaka Missions Medical College and Hospital Blood Bank,10.9533897,79.8502931,blood_bank,Puducherry,Puducherry,04368263255; 04368263277; 04368263255
Karaikal Government General Hospital Blood Bank,10.9175016,79.836579,blood_bank,Puducherry,KARAIKAL,04368222450; 227752
"Government Head Quarters Hospital Blood Bank, Nagapattinam",10.772611,79.8439631,blood_bank,Tamil Nadu,NAGAPATTINAM,4365248600
"Government Medical College and Hospital Blood Bank, Thiruvarur",10.77596,79.6024328,blood_bank,Tamil Nadu,THIRUVARUR,4366222204
"Sri Kaali Blood Bank, kumbakonam",10.9565076,79.3750218,blood_bank,Tamil Nadu,THANJAVUR,4352426037
"Government Head Quarters Hospital Blood Bank, kumbakonam",10.9692078,79.3857962,blood_bank,Tamil Nadu,THANJAVUR,4352425104
Sri Manakula Vinayagar Medical College Hospital Blood Bank,11.921586,79.6281968,blood_bank,Puducherry,Puducherry,04132643000; 04132643014; 04136533912
Karnataka Medical College Hospital Blood Bank,15.3615349,75.1307988,blood_bank,Karnataka,DHARWAD,802272908
Hubli Lions Blood Bank,15.3546226,75.1356617,blood_bank,Karnataka,DHARWAD,8362258080
Khaja Banda Nawaz Teaching and General Hospital Blood Bank,17.3264509,76.8337199,blood_bank,Karnataka,KALABURAGI,8472223458
M/s. Medicare Multispeciality Hospital Blood Bank,17.3372444,76.844198,blood_bank,Karnataka,KALABURAGI,8472262524
Health Care Blood Bank,17.3362689,76.8370311,blood_bank,Karnataka,KALABURAGI,8472261886
District Hospital Blood Bank - Gulbarga,17.3287272,76.8406051,blood_bank,Karnataka,KALABURAGI,84722240630
HKES Blood Bank Organisation,17.3284276,76.8443441,blood_bank,Karnataka,KALABURAGI,08472220307; 08472225085
M/s. Vaatsalya Life Hospitals Navajeeva Blood Bank,17.3286094,76.8480228,blood_bank,Karnataka,KALABURAGI,8472240066
Navodaya Medical College Hospital and Research Centre Blood Bank,16.185582,77.3673736,blood_bank,Karnataka,RAICHUR,08532223361(Extn.444)
Raichur Institute of Medical Sciences Teaching Hospital (RIMS) Blood Bank,16.2299095,77.3586403,blood_bank,Karnataka,RAICHUR,
HGM Hospital Blood Bank,16.1964198,76.6532837,blood_bank,Karnataka,RAICHUR,8532275049
Indian Red Cross Koppal District Branch Blood Bank,15.3500239,76.1645544,blood_bank,Karnataka,KOPPAL,8539225088
IMA Blood Bank,15.4361852,75.6377122,blood_bank,Karnataka,GADAG,8372253955
Gadag Institute of Medical Sciences & District Hospital Blood Bank,15.3787026,75.6019342,blood_bank,Karnataka,GADAG,8372297214
Red Cross Regional Blood Bank,30.9073211,75.8411859,blood_bank,Punjab,LUDHIANA,1612441257
Pandit General Hospital Blood Bank,14.6155587,74.829973,blood_bank,Karnataka,UTTARA KANNADA,8382223066
Shripad Hegde Kadave Institute of Medical Sciences Blood Bank,14.6322453,74.8485365,blood_bank,Karnataka,UTTARA KANNADA,8386221851
District Hospital Blood Bank Haveri,14.7911822,75.3963187,blood_bank,Karnataka,HAVERI,8375232222
"Odisha Red Cross Blood Bank, Jajpur",20.8495779,86.3289705,blood_bank,Odisha,JAJPUR,6728225177
"District Head Quarters Hospital Blood Bank, Kendrapara",20.5021306,86.4259806,blood_bank,Odisha,KENDRAPARA,6727233334
"Hi-Tech Medical College & Hospital Blood Bank, Bhubaneshwar",20.3006806,85.8772194,blood_bank,Odisha,KHORDHA,06743094253; 06742371217
Sum Hospital Blood Bank,20.2826049,85.7691586,blood_bank,Odisha,KHORDHA,06746098855;06742386281
Manipal Hospital Bhubaneswar Blood Bank,20.2601514,85.7780018,blood_bank,Odisha,KHORDHA,6746666600
"Odisha Red Cross Blood Bank, Capital Hospital",20.2603527,85.8226794,blood_bank,Odisha,KHORDHA,6742394985
"Apollo Hospital Blood Bank, Bhubaneswar",20.3057645,85.8318472,blood_bank,Odisha,KHORDHA,06747150454; 06746661016
Kalinga Hospital Limited Blood Bank,20.3137435,85.8184415,blood_bank,Odisha,KHORDHA,06742300570; Extn.322
Kalinga Institute of Medical Sciences (KIMS) Blood Bank,20.3533182,85.8144987,blood_bank,Odisha,KHORDHA,0674-2300570(Ext-322); 06742725472
"Central Red Cross Blood Bank, Cuttack",20.475237,85.8883452,blood_bank,Odisha,CUTTACK,6712302258
Shrirama Chandra Bhanj (SCB) Medical College Blood Bank,20.4729887,85.8912286,blood_bank,Odisha,CUTTACK,0671-2424202
Immaculate Heart of Mary Hospital's Blood Bank,9.703817,76.7207265,blood_bank,Kerala,Kottayam,+91-4722236158
Marian Medical Centre's Blood Bank,9.7064633,76.6626325,blood_bank,Kerala,Kottayam,+91-4822215519
Little Lourde Mission Hospital's Blood Bank,9.6834682,76.6122699,blood_bank,Kerala,Kottayam,+91-4822254156
St. Thomas Hospital's Blood Bank,9.4624821,76.5525533,blood_bank,Kerala,Kottayam,+91-4812721797
Mundakkayam Medical Trust Hospital's Blood Bank,9.5355215,76.9091383,blood_bank,Kerala,Idukki,+91-4869280356
Mary Queens Mission Hospital's Blood Bank,9.5581738,76.8138206,blood_bank,Kerala,Kottayam,+91-4828202460
Poyanil Hospital's Blood Bank,9.336734,76.7079914,blood_bank,Kerala,Pathanamthitta,+91 468 2310600
Fellowship Mission Hospital's Blood Bank,9.371364,76.655986,blood_bank,Kerala,Pathanamthitta,+91-4692664249; +91-4692664760
Sanjivani Multi Speciality Hospital's Blood Bank,9.2591698,76.5962666,blood_bank,Kerala,Alappuzha,+91-4792350030
V.S.M. Hospital's Blood Bank,9.2479226,76.521045,blood_bank,Kerala,Alappuzha,+91-4792304222
Thiruvalla Medical Mission Hospital's Blood Bank,9.3938948,76.5786874,blood_bank,Kerala,Pathanamthitta,+91-4692626096; +91-4692626000; +91-4692626262
Believers Church Medical College Hospital's Blood Bank,9.4168502,76.5752569,blood_bank,Kerala,Pathanamthitta,+91-4693023100
NIMS Hospital Blood Bank,8.4121116,77.0659348,blood_bank,Kerala,Thiruvananthapuram,+91-4713951111
Carithas Matha Hospital's Blood Bank,9.648578,76.549862,blood_bank,Kerala,Kottayam,+91-4812792500
H.G.M. Hospital's Blood Bank,9.7572988,76.4998109,blood_bank,Kerala,Kottayam,+91-4829283202
Century Hospital's Blood Bank,9.3048573,76.6354977,blood_bank,Kerala,Alappuzha,
M.U.M. Hospital's Blood Bank,9.8104805,76.5769077,blood_bank,Kerala,Kottayam,+91-4822242222
Devamatha Hospital's Blood Bank,9.866074,76.5951758,blood_bank,Kerala,Ernakulam,+91-4852252271
The Gujarat Cancer & Research Institute Blood Bank,23.0509351,72.6072747,blood_bank,Gujarat,AHMEDABAD,07922681451; 07922688061; 07922688062; 07922688000
Institute of Kidney Disease and Research Centre's Blood Bank,23.0499936,72.6017466,blood_bank,Gujarat,AHMEDABAD,07922687164; 07922687165; 07922687000; 07922685609
"Civil Hospital Blood Bank, Ahmedabad",23.0521851,72.6039473,blood_bank,Gujarat,AHMEDABAD,07922683949/50/51/52/53/54/55; 07922683721-31(Extn.1419)
"Indian Red Cross Society Blood Bank, Himmatnagar",23.597397,72.9587956,blood_bank,Gujarat,Sabarkantha,02772240789; 02772245110
Cross World Voluntary Blood Bank,23.0472552,72.5622377,blood_bank,Gujarat,AHMEDABAD,07926568004; 07926401959
"Gujarat Blood Bank, Naranpura",23.0553948,72.5601871,blood_bank,Gujarat,AHMEDABAD,7927413719
Sterling Hospital's Blood Bank,23.0488693,72.5313574,blood_bank,Gujarat,AHMEDABAD,7940011620
Prathama Blood Centre,23.0062053,72.5417885,blood_bank,Gujarat,AHMEDABAD,7926600101
Dr. Jivraj Mehta Smarak Health Foundation Blood Bank,23.0086532,72.5432986,blood_bank,Gujarat,AHMEDABAD,07922687164; 07922687143
V. S. Hospital Blood Bank,23.0193231,72.570869,blood_bank,Gujarat,AHMEDABAD,07926577621(Extn.341)
"Gujarat Blood Bank, Paldi",23.0165347,72.5663817,blood_bank,Gujarat,AHMEDABAD,7927413719
"Indian Red Cross Society Blood Bank, Ahmedabad",23.012315,72.5579515,blood_bank,Gujarat,AHMEDABAD,07926651833; 07926650855
Borivali Blood Bank (Doshi Memorial Charitable Trust),19.1997714,72.8460771,blood_bank,Maharashtra,MUMBAI,02228936203; 02228935219
Sai Seva Medical Foundation - Vaibhavlaxmi Blood Bank,16.6977667,74.2355606,blood_bank,Maharashtra,KOLHAPUR,02316454949; 02312664949
Sarla Blood Bank,19.3810049,72.8312632,blood_bank,Maharashtra,THANE,02502332684; 02502349950; 02503256565; 02502332425
Ashirwad Blood Bank,19.0172597,72.8482195,blood_bank,Maharashtra,MUMBAI,+91-22-2415-4826;+91-22-2415-4827
Sasoon Sarvopchar Hospital Blood Bank,18.526057,73.8716975,blood_bank,Maharashtra,PUNE,02026126868; 02024480431
Lions Club of Indore Blood Bank,22.7125595,75.8465838,blood_bank,Madhya Pradesh,INDORE,07312343122; 07312760222
ESIC Model Hospital cum ODC Blood Bank,19.1192195,72.8673363,blood_bank,Maharashtra,MUMBAI,2228321361
B.S.E.S M.G. Hospital Blood Bank,19.1194121,72.8450592,blood_bank,Maharashtra,MUMBAI,02266487576; 02266487577; 02266487578; 02226283557
Dr. R. N. Cooper General Hospital Blood Bank,19.1078504,72.8359866,blood_bank,Maharashtra,MUMBAI,02226242609; 02226247254; 02226247255; 02226247256
Kapoorben Vasanji Lathiya Blood Bank,19.0959939,72.8402942,blood_bank,Maharashtra,MUMBAI,02226119924; 02226182255; 02226267500
V. N. Desai Municipal General Hospital Blood Bank,19.0789269,72.8450595,blood_bank,Maharashtra,MUMBAI,02226182081;022357022;02226151506
Asian Heart Institute and Research Center,19.0654794,72.8608158,blood_bank,Maharashtra,MUMBAI,02266986666;02226508487
Rajawadi Blood Bank,19.0786258,72.901344,blood_bank,Maharashtra,MUMBAI,2221025611
Anviksha Blood Bank,19.0823394,72.9044782,blood_bank,Maharashtra,MUMBAI,02221026290; 02221025927
Sarvodaya Hospital Samarpan Blood Bank,19.0896306,72.9070558,blood_bank,Maharashtra,MUMBAI,02225102511; 02225100100
Matoshri Valbai Mulji Shah - Arpan Blood Bank,19.142609,72.9333776,blood_bank,Maharashtra,MUMBAI,02225951044; 02225941142
Fortis Hospital Blood Bank,19.1619605,72.942005,blood_bank,Maharashtra,MUMBAI,02267994370; 02243654374
M. T. Agarwal Municipal General Hospital Blood Bank,19.1753133,72.951213,blood_bank,Maharashtra,MUMBAI,02225640767; 02225605730
Lokmanya TSSIA Blood Bank Thane,19.1946901,72.9528531,blood_bank,Maharashtra,THANE,
Chhatrapati Shivaji Maharaj Hospital Blood Bank,19.1926965,72.9866758,blood_bank,Maharashtra,THANE,02225347784; 02225347785; 02225347786; 02225372777; 02225347791
Civil Hospital's Blood Bank,19.1984821,72.9777695,blood_bank,Maharashtra,Thane,02225472582; 02225471409; 02225471409
Blood Line Blood Bank,19.2007453,72.974974,blood_bank,Maharashtra,THANE,02225374000; 02225375000; 02225376000
Vaidhya Blood Bank,19.1878392,72.9673424,blood_bank,Maharashtra,THANE,02225380787; 02225411773
Arpan Blood Bank - Blood Component and Apheresis Centre Kolhapur,16.6989343,74.2311215,blood_bank,Maharashtra,KOLHAPUR,02312640588; 02312640599; 02316617208
Kai Wamanrao Oak Blood Bank,19.1900392,72.9715642,blood_bank,Maharashtra,THANE,02225385248; 02225392440
Navi Mumbai Municipal Corporation Blood Bank,19.0831987,72.9963478,blood_bank,Maharashtra,THANE,02227888750; 02227899906
M/s. Navi Mumbai Blood Bank,19.0433404,73.0663401,blood_bank,Maharashtra,RAIGAD,
ACTREC Blood Bank,19.0656506,73.0649011,blood_bank,Maharashtra,MUMBAI,02227405000; 02227405073
M.B. More Foundation Blood Bank,18.2359151,73.2816115,blood_bank,Maharashtra,RAIGAD,
Shushrusha Citizens Co-operative Hospital Blood Bank,19.0233474,72.8378816,blood_bank,Maharashtra,MUMBAI,02224469579; 02225288698
Sivagiri Sree Narayana Medical Mission's Blood Bank,8.7298474,76.7336164,blood_bank,Kerala,Thiruvananthapuram,+91-4702602249
Sri Shankara Cancer Hospital and Research Centre Blood Bank,12.9542601,77.5711745,blood_bank,Karnataka,BENGALURU URBAN,8026981101
KIMS Hospital Blood Bank,12.9566858,77.5742,blood_bank,Karnataka,BENGALURU URBAN,8026613225
Indian Medical Association Blood Bank,12.9599636,77.572863,blood_bank,Karnataka,RAICHUR,8532226608
Sri Vinayaka Charitable Trust Jeeva Voluntary Blood Bank,12.9616862,77.5713676,blood_bank,Karnataka,BENGALURU URBAN,8025990583
Victoria Hospital Blood Bank,12.9635486,77.573669,blood_bank,Karnataka,BENGALURU URBAN,8026700001
Saint Martha' Hospital Blood Bank,12.9706777,77.5859401,blood_bank,Karnataka,BENGALURU URBAN,8040128243
Swamy Vivekananda Voluntary Blood Bank,12.9675046,77.5897226,blood_bank,Karnataka,BENGALURU URBAN,8022224044
Mallya Hospital Blood Bank,12.9681502,77.5950569,blood_bank,Karnataka,BENGALURU URBAN,08022277979
Saint Philomena Blood Bank,12.96539,77.6105627,blood_bank,Karnataka,BENGALURU URBAN,8040164348
Hosmat Hospital Unit of Phisicare Services Private Limited Blood Bank,12.9690415,77.6133992,blood_bank,Karnataka,BENGALURU URBAN,8025593796
Command Hospital Blood Bank Air Force,12.9630637,77.6289171,blood_bank,Karnataka,BENGALURU URBAN,8025234632
St. John ' Medical College Blood Bank,12.9292434,77.6201463,blood_bank,Karnataka,BENGALURU URBAN,8022065045
"Fortis Hospital Private Limited Blood Bank, Bengaluru",12.8947975,77.598757,blood_bank,Karnataka,BENGALURU URBAN,8066214055
Apollo Hospitals (Imperial Cancer Hospital and Research Centre) Blood Bank,12.896344,77.5978813,blood_bank,Karnataka,BENGALURU URBAN,08026304050/51
Sanjeevini Trust Jayanagar Voluntary Blood Bank,12.9163171,77.5949228,blood_bank,Karnataka,BENGALURU URBAN,8026494748
Sri Jayadeva Institute of Cardiology Blood Bank,12.9180569,77.5991875,blood_bank,Karnataka,BENGALURU URBAN,8022977213
Sagar Hospital Blood Bank,12.9279951,77.5996596,blood_bank,Karnataka,BENGALURU URBAN,8026536712
Transfusion Medicine Centre Blood Bank,12.9405901,77.5988133,blood_bank,Karnataka,BENGALURU URBAN,08026995435; 08026995436; 08026995437
Kidwai Memorial Institute of Oncology Blood Bank,12.9375198,77.5985411,blood_bank,Karnataka,BENGALURU URBAN,8026094082
Sanjaya Gandhi Accident Hospital and Research Institute Blood Bank,12.9357448,77.5938244,blood_bank,Karnataka,BENGALURU URBAN,8026564516
Indira Gandhi Child Institute of Health Blood Bank,12.9372179,77.5919066,blood_bank,Karnataka,BENGALURU URBAN,8022443143
"Life Care Voluntary Blood Bank, Jayanagar",12.9283317,77.581666,blood_bank,Karnataka,BENGALURU URBAN,8022446923
"Sagar Hospital Blood Bank, Banashankari",12.9079236,77.5651087,blood_bank,Karnataka,BENGALURU URBAN,8042999177
Sree Gokulam Medical College and Research Foundation Blood Bank,8.6927903,76.9147199,blood_bank,Kerala,Thiruvananthapuram,+91-4723041234
Woman and Children Hospital's Blood Bank,9.4896674,76.3203384,blood_bank,Kerala,Alappuzha,+91-4772251151
Sacred Heart General Hospital's Blood Bank,9.6621212,76.3390911,blood_bank,Kerala,Alappuzha,+91-4782822337
K. V. M. Hospital's Blood Bank,9.6672165,76.3396355,blood_bank,Kerala,Alappuzha,+91-4772812228
Regional Blood Transfusion Centre,10.1056599,76.354841,blood_bank,Kerala,Ernakulam,+91-4842625101
Government Medical College and Hospital's Blood Bank,10.053352,76.3552111,blood_bank,Kerala,Ernakulam,+91-4842754813
Bharath Blood Bank,10.8265473,78.6837012,blood_bank,Tamil Nadu,TIRUCHIRAPPALLI,04312760995; 04312760226
Mahathma Gandhi Memorial Government Hospital Blood Bank,10.8118085,78.6776635,blood_bank,Tamil Nadu,TIRUCHIRAPPALLI,4312770047
KMC Speciality Hospitals Blood Bank ( Kavery Hospitals),10.8022289,78.6801432,blood_bank,Tamil Nadu,TIRUCHIRAPPALLI,04314077777; (Ex.2508)
Child Jesus Hospital Blood Bank,10.8051863,78.686661,blood_bank,Tamil Nadu,TIRUCHIRAPPALLI,04312415816; 04312410816
Government Hospital Blood Bank - Cuddalore,11.5154158,79.3172765,blood_bank,Tamil Nadu,CUDDALORE,+91 4143 231 766
Government Hospital Blood Bank - Ulundupettai,11.6926318,79.286065,blood_bank,Tamil Nadu,VILLUPURAM,4149222201
Government Villupuram Medical College and Hospital Blood Bank,11.9930877,79.5167872,blood_bank,Tamil Nadu,VILLUPURAM,4146232101
GN Blood Bank,11.9398719,79.487413,blood_bank,Tamil Nadu,VILLUPURAM,4146225545
Mahatma Gandhi Medical College and Research Institute,11.8120785,79.7783375,blood_bank,Puducherry,Puducherry,4132615449
Aarupadai Veedu Medical College Blood Bank,11.8308941,79.7822991,blood_bank,Puducherry,,04132611072;04132477316;04132615625
Sri Venkateshwara Medical College Hospital and Research Centre,11.9036191,79.7006929,blood_bank,Puducherry,Puducherry,04132644476; 04132260601
St. joseph's Hospital (Cluny) Blood Bank,11.9304733,79.8342065,blood_bank,Puducherry,Puducherry,413225571
Indhira Gandhi Goverment General Hospital Blood Bank,11.9317972,79.8328923,blood_bank,Puducherry,Puducherry,4132225366
Rajiv Gandhi Government Women and Child Hospital Blood Bank,11.937497,79.8071524,blood_bank,Puducherry,Puducherry,4132229355
JIPMER Blood Bank,11.9538312,79.7977314,blood_bank,Puducherry,Puducherry,04132297186;04132297187
Pondicherry Institute of Medical Sciences Blood Bank,12.046289,79.8550822,blood_bank,Puducherry,Puducherry,04132656271; 04132656272; 04132656700
St Joseph Hospital Blood Bank,12.2191914,79.6547949,blood_bank,Tamil Nadu,VILLUPURAM,4147226363
Government Hospital Blood Bank - Tindivanam,12.2412041,79.6516822,blood_bank,Tamil Nadu,VILLUPURAM,4147222250
ST Thomas Hospital Blood Bank and Leprosy Centre,12.4667449,79.3360157,blood_bank,Tamil Nadu,TIRUVANNAMALAI,4181252263
"Government Medical College Hospital Blood Bank, Tiruvannamalai",12.2737931,79.0785143,blood_bank,Tamil Nadu,TIRUVANNAMALAI,4175223585
"Mauli Blood Bank, Satara",17.6861277,74.0079953,blood_bank,Maharashtra,SATARA,02162222586; 02162222031
Kanaklata Civil Hospital Blood Bank,26.6288636,92.7969667,blood_bank,Assam,SONITPUR,003712-252999; 03712-220033
Surat Health Care Foundation Blood Bank,21.2074262,72.8272359,blood_bank,Gujarat,SURAT,02612401362; 02612400094
SMIMER Hospital Blood Bank,21.1975412,72.8447608,blood_bank,Gujarat,SURAT,02612368040; 02612368041; 02612368042; 02612368043; 02612368044(Extn.1728; 1729)
"Lok Samarpan Raktadan Kendra, Surat",21.2133243,72.8512477,blood_bank,Gujarat,SURAT,02612553020; 02612547575
Shree Sardar Smarak Hospital Blood Bank,21.1308817,73.1081584,blood_bank,Gujarat,SURAT,02622220089; 02622220507
"Lions Medical Trust Blood Bank, Chikhali",20.7599299,73.0618507,blood_bank,Gujarat,NAVSARI,2634234311
"Indian Red Cross Society Blood Bank, Navsari",20.9498825,72.9182982,blood_bank,Gujarat,NAVSARI,02637257452; 02673253172
Society of Saint Joseph Hospital Blood Bank,22.7467056,77.7340718,blood_bank,Madhya Pradesh,HOSHANGABAD,7574257835
Heritage Institute of Medical Sciences Blood Bank,25.2622446,82.909614,blood_bank,Uttar Pradesh,VARANASI,
Padhar Hospital Blood Bank,22.0554391,77.8649113,blood_bank,Madhya Pradesh,BETUL,07141263227; 07141263228; 07141263590
M. M. Patel Public Charitable Trust - Ashwini Rural Medical College and Hospital Blood Bank,17.6455071,75.9866005,blood_bank,Maharashtra,SOLAPUR,02172280891; 02172280897
SMBT Institute of Medical Science and Research Centre Blood Bank and Component,19.7610493,73.7702644,blood_bank,Maharashtra,NASHIK,2553222300
Hindustan Aeronautics Limited Blood Bank,20.1091554,73.9371407,blood_bank,Maharashtra,NASHIK,02550275845; 02550278932
Jankalyan Blood Bank,20.0087644,73.770145,blood_bank,Maharashtra,NASHIK,02532573493; 02532575249
Roachabai Sugnomal Manwani - Cantonment General Hospital Blood Bank,19.9034003,73.8255984,blood_bank,Maharashtra,NASHIK,02532493365; 025324913377; 02532462068
Sainik Aspatal Military Hospital Blood Bank,19.8980688,73.8274142,blood_bank,Maharashtra,NASHIK,
J.D.C. Bytco Hospital Blood Bank,19.9491087,73.8387358,blood_bank,Maharashtra,NASHIK,02532460251; 025324605352
Sanjeevani Blood Bank,19.9755924,73.8039798,blood_bank,Maharashtra,NASHIK,2532411888
Samta Blood Bank,19.9848234,73.7827353,blood_bank,Maharashtra,NASHIK,02532472499; 02532472599; 02532472699; 09975997867; 09975997863; 09975997864
The Santajee Educational and Medical foundation Trust's Jeevan Blood Bank,19.9880486,73.7842441,blood_bank,Maharashtra,NASHIK,7387348888
Jijau Mahila Sevabhavi Sansthan Nashik Blood Bank and Transfusion Research institute Blood Bank,19.9906285,73.7753418,blood_bank,Maharashtra,NASHIK,2532232996
"Metro Blood Bank - District Hospital, Nashik",19.9969676,73.7782466,blood_bank,Maharashtra,NASHIK,02532318020; 02532577949
Arpan Blood Bank and Blood Component Laboratory and Research Centre,20.004941,73.7871127,blood_bank,Maharashtra,NASHIK,02532311358; 02532576058
NDMVPS Medical College and Hospital Blood Bank,20.0364942,73.8523722,blood_bank,Maharashtra,NASHIK,02532220522; 02532303930
Inlaks Budharani Hospital Blood Bank,18.5343451,73.887426,blood_bank,Maharashtra,PUNE,02066099999; 02066099727; 02066099703
Daman Raktadan Kendra,20.4334524,72.8314443,blood_bank,Daman and Diu,DAMAN,2602255110
"Indian Red Cross Society (IRCS) Blood Bank, Ambikapur",20.2862057,73.0015366,blood_bank,Dadra and Nagar Haveli,DADRA AND NAGAR HAVELI,02602640911; 02602640577
"Maharashtra Blood Bank, Component and Apheresis Centre",19.6928773,72.7726932,blood_bank,Maharashtra,THANE,02525251102; 02525253102
Vijayee Blood Bank,19.3587157,72.8118424,blood_bank,Maharashtra,THANE,02502321050; 02506450250
MLGH Trauma Centre Yamuna Nagar Blood Bank,30.1389108,77.301064,blood_bank,Haryana,YAMUNANAGAR,1732200106
Sankalp Blood Bank,19.2410975,73.1467809,blood_bank,Maharashtra,THANE,02512300096; 02512203974
Plasma Diagnostic Lab and Blood Bank,19.2159547,73.0961636,blood_bank,Maharashtra,THANE,02512802491; 02512453568; 02512438078
"Seva Blood Bank, Dombivali",19.2157894,73.0916682,blood_bank,Maharashtra,THANE,2512442283
Chidanand Charitable Trust Dombivali Blood Bank,19.2188047,73.0892274,blood_bank,Maharashtra,THANE,251284393
Kokilaben Dhirubhai Ambani Blood Bank,19.13113,72.8252953,blood_bank,Maharashtra,MUMBAI,02230900900; 02230972030
Hematology Laboratory Blood Bank,18.9552278,72.8159706,blood_bank,Maharashtra,MUMBAI,2223691297
Meenatai Thackeray Blood Bank - Siddharth Hospital,19.1593521,72.8403801,blood_bank,Maharashtra,MUMBAI,02228797586; 02228797587; 02228722929
Holy Spirit Hospital Blood Bank,19.1287125,72.8665718,blood_bank,Maharashtra,MUMBAI,02228200353; 02228248505
Seven Hills Health Care Private Limited Hospital Blood Bank,19.1183451,72.8781456,blood_bank,Maharashtra,MUMBAI,2267676719
Bhabha Atomic Research Centre Hospital Blood Bank,19.0427864,72.914806,blood_bank,Maharashtra,MUMBAI,02225598353; 02225598361; 02225558494
K. J. Somaiya Medical College and Hospital Blood Bank,19.0473349,72.8746507,blood_bank,Maharashtra,MUMBAI,02224024671; 02224020946; 02224091855
S. R. Mehta and Sir. K.P. Cardiac Institute Blood Bank,19.0323769,72.8596263,blood_bank,Maharashtra,MUMBAI,02224035454; 02224094732
Lokmanya Tilak Municipal Hospital Blood Bank,19.0369599,72.8593138,blood_bank,Maharashtra,MUMBAI,02224021771; 02224063494; 02224063489
Bandra Holy Family Hospital Society Blood Bank,19.0551005,72.8273311,blood_bank,Maharashtra,MUMBAI,02230610300; 02230610555; 02226518373
K. B. Bhabha General Hospital Blood Bank,19.0575052,72.8336263,blood_bank,Maharashtra,MUMBAI,02226422541; 02226422775; 02226405226
S. L. Raheja Hospital Blood Bank,19.0464145,72.8425392,blood_bank,Maharashtra,MUMBAI,02224445528; 02266529682; 02224449418
P. D. Hinduja National Hospital And Medical Research Centre Blood Bank,19.0333696,72.8381968,blood_bank,Maharashtra,MUMBAI,02224447308; 02224447309; 02224447310
Tata Memorial Hospital Blood Bank,19.005036,72.8436148,blood_bank,Maharashtra,MUMBAI,02224177000; 02224127096(Extn.4682; 4684)
N. Wadia Maternity Hospital Blood Bank,19.0033837,72.842727,blood_bank,Maharashtra,MUMBAI,02224165638; 02224146963; 02224146964; 02224146965; (Extn124)
K. E. M. Hospital's Blood Bank,19.0017556,72.8422348,blood_bank,Maharashtra,MUMBAI,02224107421; 02224107246; 02224107249; 02224107000
Global Hospital Blood Bank - Mumbai,18.9993387,72.840769,blood_bank,Maharashtra,MUMBAI,02267670101; 02267670342
Bombay Hospital Trust Blood Bank,18.9410923,72.828176,blood_bank,Maharashtra,MUMBAI,2222067676
Blood Bank,18.9451197,72.8320639,blood_bank,Maharashtra,MUMBAI,02222031111;02222621468(Extn.1351)
Sir J.J.Mahanagar Rakthapedhi,18.9633427,72.8325105,blood_bank,Maharashtra,MUMBAI,02223735585;02223733531
Sir J.J.Group of Hospital Blood Bank,18.963434,72.833814,blood_bank,Maharashtra,MUMBAI,02223735555; 02223739400(Extn.2248; 2238)
Prince Aly Khan Hospital Blood Bank,18.970927,72.8366116,blood_bank,Maharashtra,MUMBAI,02223777934; 02223777936; 02223777800; 02223777907; 02223777908
Masina Hospital Blood Bank,18.9743259,72.8362817,blood_bank,Maharashtra,MUMBAI,2223700715
B. Y. L. Nair Hospital's Blood Bank,18.9744186,72.8220378,blood_bank,Maharashtra,MUMBAI,02223027644; 02223027645; 02223098150
Breach Candy Hospital And Research Centre Blood Bank,18.9726392,72.8043044,blood_bank,Maharashtra,MUMBAI,02223667811; 02223872666
The B.D. Petit Parsee General Hospital Blood Bank,18.9686752,72.8086455,blood_bank,Maharashtra,MUMBAI,02261186190; 02261186192; 02261186333
Saint George Hospital & Regional Blood Bank,18.9408602,72.8378119,blood_bank,Maharashtra,MUMBAI,02222621420; 02222620242(Extn.1431)
INS - Ashwini Blood Bank,18.9008104,72.8162804,blood_bank,Maharashtra,MUMBAI,02222151666(Extn.3764)
Saifee Hospital Trust Blood Bank,18.9522583,72.8185882,blood_bank,Maharashtra,MUMBAI,2267571140
Divisional Railway Hospital Blood Bank Asansol,23.6745212,86.9412518,blood_bank,West Bengal,BARDHAMAN,3412220529
Sanctoria Hospital Blood Bank,23.7062207,86.8273491,blood_bank,West Bengal,BARDHAMAN,03412523576; 03412523577; 03412521035
Central Hospital Blood Bank BCCL Dhanbad,23.8055281,86.4502224,blood_bank,Jharkhand,DHANBAD,9470595563
"Patliputra Medical college and Hospital (PMCH) Blood Bank, Dhanbad",23.7984285,86.4371829,blood_bank,Jharkhand,DHANBAD,3262230301
Dwarka Das Jalan Memorial Hospital Bartand Blood Bank,23.8059453,86.4311412,blood_bank,Jharkhand,DHANBAD,3262313525
Bokaro General Hospital Blood Bank,23.6744549,86.146068,blood_bank,Jharkhand,BOKARO,6542289076
"Indian Red Cross Society Blood Bank, Bokaro",23.6455955,86.1517476,blood_bank,Jharkhand,BOKARO,06542224555; 06542288137
K.M. Memorial Hospital & Research Center Blood Bank,23.6331402,86.1737671,blood_bank,Jharkhand,BOKARO,
Deben Mahato (Sadar) Hospital Blood Bank,23.33239,86.3624096,blood_bank,West Bengal,PURULIA,3252222678
Jamshedpur Blood Bank,22.8042615,86.1813618,blood_bank,Jharkhand,EAST SINGHBHUM,6572431957
Chaibasa Sadar Hospital Blood Bank,22.5508041,85.806047,blood_bank,Jharkhand,WEST SINGHBHUM,9279221139
"Odisha Red Cross Blood Bank, SDH, Rairangpur",22.2687479,86.1754113,blood_bank,Odisha,MAYURBHANJ,679422298
"Odisha red Cross Blood Bank, Karanjia, Mayurbhanj",21.7643623,85.9733713,blood_bank,Odisha,MAYURBHANJ,6796221832
"Odisha Red Cross Blood Bank, SDH, Champua",22.0664998,85.6650513,blood_bank,Odisha,KENDUJHAR,6767240898
"Odisha Red Cross Blood Bank, SDH, Anandapur",21.2158591,86.1096355,blood_bank,Odisha,KENDUJHAR,6731221467
"Odisha Red Cross Blood Bank, Kendujhar",21.6284657,85.5956465,blood_bank,Odisha,KENDUJHAR,6766254380
"Odisha Red Cross Blood Bank, Dhenkanal",20.6631831,85.5970077,blood_bank,Odisha,DHENKANAL,6762221388
Aharya Harihar Red Cross Blood Bank,19.8145117,85.8296397,blood_bank,Odisha,PURI,6752224097
Maharaja Krishna Chandra Gajapati Medical College Blood bank,19.3126748,84.8099202,blood_bank,Odisha,GANJAM,6802292534
"Odisha Red Cross Blood Bank, SDH, Bhanjanagar",19.9323023,84.580083,blood_bank,Odisha,GANJAM,6821240133
"Odisha Red Cross Blood Bank, SDH, Baliguda",20.1996664,83.9104508,blood_bank,Odisha,KANDHAMAL,6846243195
Community Welfare Society Hospital Blood Bank,22.2554441,84.9009731,blood_bank,Odisha,Sundergarh,06612473931; 06612473927
Vesaj Patel Hospital and Research Center Blood Bank,22.2266056,84.8215073,blood_bank,Odisha,Sundergarh,6612401799
Hi-Tech Medical college & Hospital Blood Bank,22.224304,84.8300381,blood_bank,Odisha,Sundergarh,6612400751; 06612400524
"Odisha Red Cross Blood Bank, Deogarh",21.5343954,84.7296792,blood_bank,Odisha,DEOGARH,6641226182
"Odisha Red Cross Blood Bank, SDH, Athamallik",20.7187658,84.537047,blood_bank,Odisha,ANGUL,6763254213
"Odisha Red Cross Blood Bank, Angul",20.840025,85.094119,blood_bank,Odisha,ANGUL,6764230880
"Sub Divisional Hospital Blood Bank, Talcher",20.9464683,85.2410826,blood_bank,Odisha,ANGUL,6760242020
Neheru Satabdi (N.S) Central Hospital Blood Bank,20.9309705,85.1729733,blood_bank,Odisha,ANGUL,6760267118
"Nalco Hospital Blood Bank, Angul",20.8503048,85.1521379,blood_bank,Odisha,ANGUL,
"Odisha Red Cross Blood Bank, Nayagarh",20.1283706,85.107408,blood_bank,Odisha,NAYAGARH,6753252410
District Hospital Blood Bank Mahasamund,21.1195867,82.0737331,blood_bank,Chhattisgarh,RAIGARH,7723222203
"Odisha Red Cross Blood Bank, Nuapada",20.8067319,82.5332665,blood_bank,Odisha,NUAPADA,
"Odisha Red Cross Blood Bank, SDH, Padampur",20.99951,83.0610073,blood_bank,Odisha,BARGARH,6638223490
"Odisha Red Cross Blood Bank, Patnagarh",20.7082914,83.1293147,blood_bank,Odisha,BALANGIR,6658222161
"Odisha Red Cross Blood Bank, Balangir",20.7073907,83.4946266,blood_bank,Odisha,BALANGIR,6652230646
"Odisha Red Cross Blood Bank, Sonepur",20.8436121,83.9073153,blood_bank,Odisha,SONEPUR,6654220150
"Odisha Red Cross Blood Bank, Boudh",20.8403108,84.3215369,blood_bank,Odisha,BOUDH,6841222202
"Odisha Red Cross Blood Bank, Kandhamal",20.4857331,84.2247507,blood_bank,Odisha,KANDHAMAL,6842253006
"Odisha Red Cross Blood Bank, SDH, Titlagarh",20.2894681,83.1538426,blood_bank,Odisha,BALANGIR,6655220318
"Biju Padhnaik Red Cross Blood Bank, CHC Kantabanji",20.4690964,82.914682,blood_bank,Odisha,BALANGIR,6657220464
Evangelical Hospital Blood Bank,20.3095705,82.7418244,blood_bank,Odisha,NUAPADA,
"Odisha Red Cross Blood Bank, SDH, Dharmagarh",19.8694368,82.7810088,blood_bank,Odisha,KALAHANDI,6672242077
Sardar Rajas Medical College Hospital Blood Bank,19.8907293,83.0146265,blood_bank,Odisha,KALAHANDI,6670226701
"District Head Quarters Hospital Blood Bank, Bhawanipatna",19.9019288,83.1602141,blood_bank,Odisha,KALAHANDI,6670234952
Christian Hospital Blood Bank,19.5165161,83.5074288,blood_bank,Odisha,RAYAGADA,6863247505
"Odisha Red Cross Blood, Paralakhemundi",18.7714579,84.0967195,blood_bank,Odisha,GAJAPATI,06815222467; 06815222787
Iqraa Hospital's Blood Bank,11.286316,75.7979151,blood_bank,Kerala,Kozhikode,+91-4952379100
Nirmala Hospital's Blood Bank,11.291474,75.824241,blood_bank,Kerala,Kozhikode,+91-4952730211
Tata Global Beverages Limited High Range Hospital's Blood Bank,10.0884902,77.0566168,blood_bank,Kerala,Idukki,
Morning Star Medical Centre's Blood Bank,10.0119563,76.9583706,blood_bank,Kerala,Idukki,+91-4864222114
Holy Family Hospital's Blood Bank,9.912494,76.734201,blood_bank,Kerala,Idukki,+91-4862222231
Al-Azhar Medical College & Super Speciality Hospital's Blood Bank,9.940665,76.7212871,blood_bank,Kerala,Idukki,+91-4862223000
Nirmala Medical Centre's Blood Bank,9.9816035,76.5849996,blood_bank,Kerala,Ernakulam,+91-4852835343
Malankara Orthodox Syrian Church Medical Mission Hospital's Blood Bank,9.9825582,76.476455,blood_bank,Kerala,Ernakulam,+91-4885222944
St. Joseph's Mission Hospital's Blood Bank,8.9294072,76.918172,blood_bank,Kerala,Kollam,+91-4752271341; 04752271342
Bishop Benziger Hospital's Blood Bank,8.8814835,76.5932921,blood_bank,Kerala,Kollam,+91-4742768204
I.M.A. Centre Blood Bank,8.8960365,76.5932109,blood_bank,Kerala,Kollam,+91-4742766551
S.N. Trust Medical Mission Sankar Memorial Hospital's Blood Bank,8.8893481,76.5981965,blood_bank,Kerala,Kollam,+91-4743918424
Travancore Medical College Hospital's Blood Bank,8.8750226,76.6454154,blood_bank,Kerala,Kollam,+91-4743069999; +91-4742729393
Azeezia Medical College Hospital's Blood Bank,8.890059,76.7380283,blood_bank,Kerala,Kollam,+91-4743069200
Karuna Medical College Hospital's Blood Bank,10.6788475,76.775695,blood_bank,Kerala,Palakkad,+91-4923221792
M.E.S. Medical College's Blood Bank,10.9572057,76.175739,blood_bank,Kerala,Malappuram,+91-4933298300; +91-4933258306
KIMS Al-Shifa Hospital's Blood Bank,10.9845372,76.2235582,blood_bank,Kerala,Malappuram,+91-4933299160; +91-4933299103
Korambayil Hospital Blood Bank,11.1230147,76.1285568,blood_bank,Kerala,MALAPPURAM,+91-4832766573; +91-4832766822
Almas Hospital Blood Bank - Chankuvatty,10.9999541,75.990876,blood_bank,Kerala,MALAPPURAM,+91-4832748536; +91-4832748539
Edappal Hospital's Blood Bank,10.7820357,76.0108117,blood_bank,Kerala,Malappuram,+91-4942660200; +91-4942680788
Sreevalsam Institute of Medical Sciences' Blood Bank,10.7651619,76.0072374,blood_bank,Kerala,Malappuram,+91-4942661000; +91-4942690696
Mary Immaculate Mission Hospital's Blood Bank,10.5084503,76.0577112,blood_bank,Kerala,Thrissur,+91-4872290237
Royal Hospital's Blood Bank,10.6459611,76.067445,blood_bank,Kerala,Thrissur,+91-4885222133
Unity Hospital's Blood Bank,10.6357897,76.0818664,blood_bank,Kerala,Thrissur,
Medical College Hospital's Blood Bank,10.6182511,76.1984923,blood_bank,Kerala,Thrissur,+91-4872200310
Mother Hospital's Blood Bank,10.5197808,76.1852932,blood_bank,Kerala,Thrissur,+91-4872434100; +91-4872361091
Westfort Hi-Tech Hospital's Blood Bank,10.5366157,76.1970279,blood_bank,Kerala,Thrissur,+91 487 2388999
West Fort Hospital's Blood Bank,10.5241381,76.2017122,blood_bank,Kerala,Thrissur,+91 487 2382130;+91 487 2388783
Jubilee Mission Hospital's Blood Bank,10.5209859,76.2265751,blood_bank,Kerala,Thrissur,+91-4872432200
District Hospital's Blood Bank,10.5230122,76.2173923,blood_bank,Kerala,Thrissur,+91 487 2427778;+91 487 2427383
Thrichur Heart Hospital's Blood Bank,10.512787,76.2147706,blood_bank,Kerala,Thrissur,+91 487 2433101
Metropolitan Hospital's Blood Bank,10.5105407,76.2104962,blood_bank,Kerala,Thrissur,+91 487 2425125
Elite Mission Hospital's Blood Bank,10.5023779,76.2114501,blood_bank,Kerala,Thrissur,+91 487 2429322;+91 487 3011400
Bishop Alappat Mission Hospital's Blood Bank,10.3951198,76.1646241,blood_bank,Kerala,Thrissur,+91 480 2670267
Sacred Heart Mission Hospital's Blood Bank,10.3451387,76.2347766,blood_bank,Kerala,Thrissur,+91 480 2826545;+91 480 2823128
St. James Hospital's Blood Bank,10.3152718,76.3351756,blood_bank,Kerala,Thrissur,+91-4802710271
Maria Theresa Hospital's Blood Bank,10.2891682,76.2771347,blood_bank,Kerala,Thrissur,
Sanjoe Hospital's Blood Bank,10.1143139,76.4726397,blood_bank,Kerala,Ernakulam,+91-4842522251
M/s. Rajagiri Healthcare and Education Trust Blood Bank,10.0877547,76.3880226,blood_bank,Kerala,ERNAKULAM,+91-4846655618
Samaritan Hospital's Blood Bank,10.0439089,76.3975579,blood_bank,Kerala,Ernakulam,+91-4842680511; +91-4842680516
St. John's Hospital's Blood Bank,9.7469477,77.1097901,blood_bank,Kerala,Idukki,+91-4868272239
Lifeline Super Speciality Hospital's Blood Bank,9.1636221,76.7062734,blood_bank,Kerala,Pathanamthitta,+91-4734223377
"General Hospital Blood Bank, Porbandar",21.6365377,69.6285193,blood_bank,Gujarat,PORBANDAR,2862242910
Navdeep Blood Bank,21.5207784,70.4544599,blood_bank,Gujarat,JUNAGADH,2852631127
"Indian Red Cross Society Blood Bank, Amreli",21.6070548,71.22186,blood_bank,Gujarat,AMRELI,02792223034; 02792232854
Navkar Charitable Trust Mahuva Blood Bank,21.0896492,71.7690428,blood_bank,Gujarat,BHAVNAGAR,2844224464
Bhavnagar Blood Bank,21.7544801,72.1535629,blood_bank,Gujarat,BHAVNAGAR,2782561526
Sir T. General Hospital Blood Bank,21.7675931,72.1417612,blood_bank,Gujarat,BHAVNAGAR,02782520091; 02782423250
Bambhaniya Voluntary Blood Bank,21.7696107,72.1448269,blood_bank,Gujarat,BHAVNAGAR,02782224744; 02783004744
Smt. Sonalien A. Shah Blood Bank,22.1726963,71.6631277,blood_bank,Gujarat,BHAVNAGAR,0278255361; 0278256099
General Hospital Surendranagar Blood Bank,22.7218573,71.6487886,blood_bank,Gujarat,SURENDRANAGAR,2752222052
C. U. Shah Medical College and Hospital Blood Bank,22.7423508,71.6217881,blood_bank,Gujarat,SURENDRANAGAR,02752287041; 02752287000; 02752287001; 02752287002
"Bahansali Trust Raktdan Kendra, Radhanpur",23.8234657,71.6164036,blood_bank,Gujarat,PATAN,02746277343; 02746277249
Jashpur District Hospital Blood Bank,22.8823861,84.1370665,blood_bank,Chhattisgarh,JASHPUR,
Janjgir District Hospital Blood Bank,22.0087512,82.5966821,blood_bank,Chhattisgarh,JANJGIR-CHAMPA,
"District Hospital Blood Bank, Surajpur",23.2097263,82.8804144,blood_bank,Chhattisgarh,SURAJPUR,
Saraswati Voluntary Blood Bank,24.4996456,72.032724,blood_bank,Gujarat,Banaskantha,2748222011
Gayatri Pathology Laboratory and Voluntary Blood Bank,24.2662821,72.1838631,blood_bank,Gujarat,Banaskantha,2742253475
Gandhi Lincon Hospital Blood Bank,24.255953,72.1842635,blood_bank,Gujarat,Banaskantha,2744220172
Seventilal Kantilal Blood Bank,23.8488845,72.112096,blood_bank,Gujarat,PATAN,02766231477; 02766233496
"GMERS Medical College and Hospital Blood Bank, Dharpur",23.8475266,72.1922484,blood_bank,Gujarat,PATAN,2766233311
"General Hospital Blood Bank, Siddhpur",23.9159262,72.3731312,blood_bank,Gujarat,PATAN,2767223086
"Sardar Seva Trust, Unjha Nagrik Sahkari Voluntary Blood Bank",23.8040594,72.3897274,blood_bank,Gujarat,Mehsana,2767248755
Mehsana Jaycees Charitable Trust Blood Bank,23.6057513,72.3855633,blood_bank,Gujarat,Mehsana,02762251252; 02762243634
"General Hospital Blood Bank, Mehsana",23.6081353,72.3914172,blood_bank,Gujarat,Mehsana,02762297301; 02762221475
Indian Medical Association (IMA) Blood Bank,23.4237997,72.6503335,blood_bank,Gujarat,GANDHINAGAR,2763270085
Shraddhadeep Pathology Lab and Blood Bank,23.2269598,72.6465181,blood_bank,Gujarat,GANDHINAGAR,7923222474
"General Hospital Blood Bank, Sola",23.0829395,72.5247699,blood_bank,Gujarat,AHMEDABAD,07927664349; 07927432584; 07927474359(Exte.210)
Maha Gujarat Blood Bank,22.9975368,72.6024306,blood_bank,Gujarat,AHMEDABAD,07925451331; 07925461641
L. G. Hospital Blood Bank,22.9995614,72.6050511,blood_bank,Gujarat,AHMEDABAD,07925461380/81/82/83/84(Extn.219)
Help Voluntary Blood Bank,23.0001213,72.6047862,blood_bank,Gujarat,AHMEDABAD,7965136744
GUJARAT CANCER MEDICAL COLLEGE's Blood Bank,23.0391891,72.6105738,blood_bank,Gujarat,AHMEDABAD,0796648138; 07966048000
Smt. Shardaben Hospital Blood Bank,23.0330048,72.6107548,blood_bank,Gujarat,AHMEDABAD,07922164261; 07922924264
Adarsh Pathology Laboratory and Blood Bank,23.0377242,72.6301351,blood_bank,Gujarat,AHMEDABAD,07922749146; 07922746672
"White Cross Blood Bank, Naroda",23.065027,72.6426664,blood_bank,Gujarat,AHMEDABAD,7922815227
Apollo Hospital International Limited Blood Bank,23.1095362,72.6260528,blood_bank,Gujarat,GANDHINAGAR,7966701825
Ami Pathology Laboratory and Blood Bank,23.0870823,72.592206,blood_bank,Gujarat,AHMEDABAD,7927501202
Imambara Sadar Hospital Blood Bank,22.892422,88.3994944,blood_bank,West Bengal,HOOGHLY,3326800236
"Government Head Quarters Hospital Blood Bank, periyakulam",10.123288,77.5329369,blood_bank,Tamil Nadu,THENI,4546231292
District Hospital Blood Bank Bemetara,21.7021133,81.5337937,blood_bank,Chhattisgarh,BEMETARA,
"Gayatri Blood Bank, Durg",21.1987492,81.2854457,blood_bank,Chhattisgarh,DURG,
Nehru Centenary Hospital Blood Bank,22.3500609,82.54879,blood_bank,Chhattisgarh,KORBA,07815275309; 07815262456
United Blood Bank,21.2490265,81.6487911,blood_bank,Chhattisgarh,RAIPUR,7712432002
Chhattisgarh Blood Bank,21.244084,81.6120775,blood_bank,Chhattisgarh,RAIPUR,07714088109; 07713060518
"City Blood Bank, Raipur",21.2408616,81.6206911,blood_bank,Chhattisgarh,RAIPUR,07714032241; 07716460810
Rajdhani Blood Bank,21.2448529,81.6300776,blood_bank,Chhattisgarh,RAIPUR,07712292120; 07712292130
Dr. B R Ambedkar Memorial Hospital's Blood Bank,21.250143,81.6407745,blood_bank,Chhattisgarh,RAIPUR,7712890090
Raipur Institute of Medical Science,21.2413846,81.8380678,blood_bank,Chhattisgarh,RAIPUR,0771-305306088
Evangelical Mission Hospital Blood Bank,21.5539707,81.7905169,blood_bank,Chhattisgarh,RAIPUR,07721-233599
Shree Narayana Hospital Blood Bank,21.263501,81.6498157,blood_bank,Chhattisgarh,RAIPUR,7713001234
Aashirwad Blood Bank,21.2594851,81.6622727,blood_bank,Chhattisgarh,RAIPUR,7714043768
Bilasa Blood Bank,21.2542777,81.6633506,blood_bank,Chhattisgarh,RAIPUR,0771-4009304
Srishti Blood Bank,21.2462109,81.6309168,blood_bank,Chhattisgarh,RAIPUR,7354111119
SSD Blood Bank,21.2361598,81.6515663,blood_bank,Chhattisgarh,RAIPUR,07712432511; 07712422980
Narayana Hrudayalaya MMI Blood Bank,21.2131787,81.6579115,blood_bank,Chhattisgarh,RAIPUR,07714210902(Ext-928)
Dhamtari District Hospital Blood Bank,20.7077641,81.5396928,blood_bank,Chhattisgarh,DHAMTARI,
Kanker District Hospital Blood Bank,20.264751,81.4952112,blood_bank,Chhattisgarh,KANKER,7868241063
Sunder Lal Jain Charitable Hospital Blood Bank,28.6918169,77.181463,blood_bank,Delhi,NORTH WEST DELHI,1147030900
Sushruta Trauma Centre Blood Bank,28.6798078,77.228384,blood_bank,Delhi,NORTH WEST DELHI,01123906014; 01123906028
Blood Bank,28.6776906,77.2241475,blood_bank,,,+91 11 2398 1260;+91 11 2399 4401;+91 11 2399 4402
Hindu Rao Hospital Blood Bank,28.6757799,77.2121508,blood_bank,Delhi,NORTH DELHI,1123905713
St. Stephen's Hospital Blood Bank,28.6668948,77.2143441,blood_bank,Delhi,NORTH DELHI,01123966021; 01123966022; 01123966023; 01123966024
"Kasturba Hospital Blood Bank, Daryaganj",28.6492143,77.2373334,blood_bank,Delhi,CENTRAL DELHI,01123282915extension202
Northern Railway Central Hospital Blood Bank,28.636617,77.2173697,blood_bank,Delhi,NEW DELHI,01123747989; 01123744150; 01123744170
Delhi Heart and Lung Institute Blood Bank,28.6417112,77.2053896,blood_bank,Delhi,NORTH WEST DELHI,01142999999; 01142988899; 01123538351
Sir Ganga Ram Hospital Blood Bank,28.638201,77.1893054,blood_bank,,,
Blood Bank Organisation,28.6425157,77.1817472,blood_bank,Delhi,WEST DELHI,1125721870
Dr. B. L. Kapoor Memorial Hospital Blood Bank,28.6434861,77.1795881,blood_bank,Delhi,WEST DELHI,01130653095; 01130653926
Cancer Institute Hospital's Blood Bank,13.0085366,80.2484237,blood_bank,Tamil Nadu,Chennai,04422209150; 04424910754; 04422350241
"Medical college & Hospital Blood Bank, Rajnandgaon",21.0861309,81.03047,blood_bank,Chhattisgarh,RAJNANDGAON,
Durg District Hospital Blood Bank,21.1874054,81.2793137,blood_bank,Chhattisgarh,DURG,7882219888
Chandulal Chandraker Memorial (C.C.M.) Medical College Blood Bank,21.2516145,81.3384122,blood_bank,Chhattisgarh,DURG,7886006061
B.S.R. Cancer Hospital,21.2162878,81.3233699,blood_bank,Chhattisgarh,DURG,7884085100
J.L.N Hospital & Research Center Blood Bank,21.1880182,81.3145267,blood_bank,Chhattisgarh,DURG,7882856020
Indian Red Cross Society Blood Bank - Raipur,21.2456605,81.6444873,blood_bank,Chhattisgarh,RAIPUR,7712880111
Aarthi Hospital Blood Bank,9.1745744,77.8663167,blood_bank,Tamil Nadu,Thoothukudi (TUTICORIN),4362223346
M/s. Sai Aadhar Hospital Blood Bank,16.3252259,75.2893992,blood_bank,Karnataka,BAGALKOT,8350282100
Dispur Blood Bank,26.1496203,91.7872833,blood_bank,Assam,KAMRUP,0825399124(ext222)
Ghanshyam Pathlology Laboratory and Blood Bank,22.5565448,72.9639119,blood_bank,Gujarat,ANAND,02692252744; 02692252667
SDS Global Super Speciality Hospital's Blood Bank,29.0673729,77.7093706,blood_bank,Uttar Pradesh,MEERUT,
Voluntary Blood Bank,10.7872747,79.1316126,blood_bank,Tamil Nadu,THANJAVUR,
Himalayan Institute Trust Blood Bank,30.1929219,78.165143,blood_bank,Uttarakhand,DEHRADUN,1352471455
Sinha Blood Bank Muzaffarpur,26.1261572,85.3750321,blood_bank,Bihar,MUZAFFARPUR,+91 6212216140
Darbhanga Medical College and Hospital (DMCH) Regional Blood Bank,26.133544,85.8990794,blood_bank,Bihar,DARBHANGA,+91 6272233092
Oil India Limited Hospital Blood Bank,27.3590638,95.3235117,blood_bank,Assam,DIBRUGARH,3742806356
"Padmashri Dr. Vithalrao Vikhe Patil Foundation, Ahmednagar Medical College Hospital Blood Bank",19.1786187,74.6998865,blood_bank,Maharashtra,AHMEDNAGAR,02412778042(Exte-449)
Mata Gujri Memorial (MGM) Blood Bank,26.1023586,87.9700962,blood_bank,Bihar,KISHANGANJ,+91 6456223475
Yashwantrao Chavan Blood Bank,17.2758767,74.1817193,blood_bank,Maharashtra,SATARA,2164228122
"Malkhan Singh, District Hospital Blood Bank",27.8893603,78.0709586,blood_bank,Uttar Pradesh,ALIGARH,5712523338
Leo Hospital's Blood Bank,11.6045903,76.0853031,blood_bank,Kerala,Wayanad,+91-4936202550; +91-4936202711
Tellichery Co-operative Hospital ambulance station,11.7642052,75.4796657,blood_bank,Kerala,KANNUR,+91 490 232 5306
Mounesh Hospital's The Jhamkandi Blood Bank,16.5062107,75.2887876,blood_bank,Karnataka,BAGALKOT,835322357
Chiranjeevi Blood Bank,15.273505,76.3782265,blood_bank,Karnataka,BELLARY,839262275
Smt. Vasantidevi Baldota Blood Bank,15.2598207,76.3793537,blood_bank,Karnataka,BELLARY,839231901
M/s. Kanachur Hospital & Research Centre Blood Bank,12.8035443,74.8981574,blood_bank,Karnataka,DAKSHINA KANNADA,8242202982
K. V. G Medical College Hospital Blood Bank,12.5530241,75.3844164,blood_bank,Karnataka,DAKSHINA KANNADA,824230326
General Hospital Blood Bank Puttur,12.7585658,75.2003552,blood_bank,Karnataka,DAKSHINA KANNADA,8251238258
Rotary Campco Blood Bank,12.7607396,75.1989752,blood_bank,Karnataka,DAKSHINA KANNADA,824234242
Jyothi Hospital Blood Bank - Belthangady,12.9912342,75.2884778,blood_bank,Karnataka,DAKSHINA KANNADA,8256233939
Mallegowda District Hospital Blood Bank,13.3139419,75.774482,blood_bank,Karnataka,CHIKKAMAGALURU,8262238083
Sharada Dhanvantari Charitable Hospital Blood Bank,13.4288459,75.2542327,blood_bank,Karnataka,CHIKKAMAGALURU,826220175
McGann Hospital Blood Bank,13.9353636,75.5626211,blood_bank,Karnataka,SHIVAMOGGA,8182222412
Red Cross Sanjeevini Blood Bank,13.9338368,75.5717888,blood_bank,Karnataka,SHIVAMOGGA,8182228855
Shivamogga Mid Town Rotary Charity Foundation Blood Bank,13.9464214,75.5782087,blood_bank,Karnataka,SHIVAMOGGA,8182274333
Subbaiah Medical College Blood Bank,13.9328879,75.6166434,blood_bank,Karnataka,SHIVAMOGGA,8182277505
VISL Hospital Blood Bank,13.8304067,75.690496,blood_bank,Karnataka,SHIVAMOGGA,8182271620
Bapuji Educational Association S. S. Institute of Medical Sciences and Research Hospital Blood Bank,14.4319969,75.941585,blood_bank,Karnataka,DAVANGERE,8192266016
Chigateri District Hospital Blood Bank,14.4570725,75.9158465,blood_bank,Karnataka,DAVANGERE,8192272085
Davangere Blood Bank,14.459212,75.9151237,blood_bank,Karnataka,DAVANGERE,8192236655
Karnataka Hemophillia Society Life Line Blood Bank,14.4578335,75.9028311,blood_bank,Karnataka,DAVANGERE,8192231948
Yenepoya Medical College Blood Bank,12.8114456,74.8815264,blood_bank,Karnataka,DAKSHINA KANNADA,8242204668
A. J. Hospital and Research Centre Blood Bank,12.8987795,74.846368,blood_bank,Karnataka,DAKSHINA KANNADA,8242225535
The District Surgeon - Wenlock District Hospital Blood Bank,12.8671822,74.8429991,blood_bank,Karnataka,DAKSHINA KANNADA,8242413205
KMC University Medical Centre Blood Bank,12.8700612,74.8443402,blood_bank,Karnataka,DAKSHINA KANNADA,08242444590(Extn.5059)
M/s. Tejasvini Hospital Lions Blood Bank,12.8804104,74.8537347,blood_bank,Karnataka,DAKSHINA KANNADA,8242225994
City Hospital Research and Diagnostic Centre Blood Bank,12.8795476,74.8531084,blood_bank,Karnataka,DAKSHINA KANNADA,824221790
Fr. Mullers Charitable Instituitions Blood Bank,12.866182,74.8599038,blood_bank,Karnataka,DAKSHINA KANNADA,8242238126
M/s. Suchirayu Healthcare Limited Blood Bank,15.352741,75.1244219,blood_bank,Karnataka,DHARWAD,8362239000
Life Line 24x7 Blood Bank,15.351127,75.116795,blood_bank,Karnataka,DHARWAD,8362330000
"Air Force Hospital Blood Bank, Maharajganj",26.7590511,83.4208658,blood_bank,Uttar Pradesh,GORAKHPUR,5512272381
Bapuji Hospital Blood Bank,14.4552563,75.9170589,blood_bank,Karnataka,DAVANGERE,8192253850
Bhathinda Civil Hospital Blood Bank,30.195009,74.9495666,blood_bank,Punjab,BATHINDA,1642240208
District Hospital Blood Bank Dharwad,15.4646788,75.0096515,blood_bank,Karnataka,DHARWAD,8362747747
Mahatama Gandhi National Institute of Medical Sciences (MGNIMS) Blood Bank,26.7698118,75.8545232,blood_bank,Rajasthan,JAIPUR,01412771777; ext109/110; 01412770900
SDM College of Medical Sciences and Hospital Blood Bank,15.4183913,75.0501984,blood_bank,Karnataka,DHARWAD,8362477262
ESI Hospital Blood Bank,11.0093009,77.0244035,blood_bank,Tamil Nadu,COIMBATORE,4222300871
Kovai Medical Centre and Hospital Blood Bank,11.0424465,77.040368,blood_bank,Tamil Nadu,COIMBATORE,4224323800
Revathy Medical Centre Blood Bank,11.1201754,77.3291548,blood_bank,Tamil Nadu,TIRUPPUR,4214332211
"Government Hospital Blood Bank, Gobichettipalayam",11.4564173,77.4288699,blood_bank,Tamil Nadu,ERODE,4285227153
Sri Ram Blood Bank,11.4559606,77.4298288,blood_bank,Tamil Nadu,ERODE,04285222596; 04285222224
IRT Perunthurai Medical College Hospital Blood Bank,11.281192,77.5675535,blood_bank,Tamil Nadu,ERODE,4294220910
Kongu Blood Bank,11.3406148,77.7159487,blood_bank,Tamil Nadu,ERODE,04242263537; 04242263536
Erode Blood Bank and Clinical Laboratory,11.3363025,77.7197608,blood_bank,Tamil Nadu,ERODE,4242253163
Lotus Blood Bank,11.3259011,77.7302738,blood_bank,Tamil Nadu,ERODE,4242282828
Karur Blood Bank,10.9637478,78.0690984,blood_bank,Tamil Nadu,KARUR,04324236177; 04324236188
"Government Head Quarters Hospital Blood Bank, karur",10.9623074,78.0804603,blood_bank,Tamil Nadu,KARUR,4324260197
"Government Hospital Blood Bank, Rasipuram",11.2165608,78.1683221,blood_bank,Tamil Nadu,NAMAKKAL,4287222878
Vinayaga Mission Kirubananda Variar Medical College Hospital Blood Bank,11.5847226,78.0642289,blood_bank,Tamil Nadu,SALEM,4273982000
S Palaniyandi Mudaliar Memorial Hospital Blood Bank,11.6612177,78.1920294,blood_bank,Tamil Nadu,SALEM,04272244500; 04272240394; 04272240395
Sri Shellapha Hospital Blood Bank,11.6597309,78.1548969,blood_bank,Tamil Nadu,SALEM,04272421266; 04272421277
Sithi Vinayagar Blood Bank,11.671191,78.1518593,blood_bank,Tamil Nadu,SALEM,04272312577; 04272316440
KSM Blood Bank (Run by Maruti Charitable Trust),11.6729208,78.144144,blood_bank,Tamil Nadu,SALEM,04272446788; 04272445453
Maruti Blood Bank,11.6723672,78.1360417,blood_bank,Tamil Nadu,SALEM,04272444962; 04274040110
Sri Gokulam Hospital Blood Bank,11.67271,78.1341447,blood_bank,Tamil Nadu,SALEM,04272448171; 04272448176
Minu Labs and Blood Bank,11.6754142,78.1314491,blood_bank,Tamil Nadu,SALEM,04272318881; 04272332425
Kurinji Hospital Blood Bank,11.6771688,78.135463,blood_bank,Tamil Nadu,SALEM,04272433321; 04272433300; 04272433301; 04272433302
Dharmapuri Medical College Hospital Blood Bank,12.1230018,78.1568322,blood_bank,Tamil Nadu,DHARMAPURI,4342231748
Ashok Blood Bank and Clinical Laboratory,12.1325583,78.1611311,blood_bank,Tamil Nadu,DHARMAPURI,4342260627
TCR Blood Bank ( Run by TCR hospital & Charitable Trust),12.508734,78.2237385,blood_bank,Tamil Nadu,KRISHNAGIRI,4343239393
Government Head Quarters Hospital Blood Bank - Tirupattur,12.4966622,78.5661158,blood_bank,Tamil Nadu,VELLORE,4179220080
Government Hospital Blood Bank - Viniyambadi,12.6767815,78.6156321,blood_bank,Tamil Nadu,VELLORE,4174225700
Bethesda Hospital Blood Bank,12.7774884,78.7200411,blood_bank,Tamil Nadu,VELLORE,4174242131
Government Hospital Blood Bank - Ambur,12.7866357,78.7168895,blood_bank,Tamil Nadu,VELLORE,4174244656
Government Hospital Blood Bank,12.9453137,78.8704768,blood_bank,Tamil Nadu,VELLORE,4171221100
Government Medical College Hospital Blood Bank,12.8446555,79.1371165,blood_bank,Tamil Nadu,VELLORE,4162263900
Sri Narayani Hospital and Research Centre Blood Bank,12.8709384,79.0900075,blood_bank,Tamil Nadu,VELLORE,04162206300; 04162271202; 04162271844; 04162271584
Masonic Blood Bank,12.9305537,79.1350184,blood_bank,Tamil Nadu,VELLORE,04162220717; 04162223024
Deen Dayal Hospital Blood Bank,13.1774113,79.8104167,blood_bank,Tamil Nadu,KANCHIPURAM,4427677700
"Government Head Quarters Hospital Blood Bank, Thiruvallur",13.1283138,79.9108688,blood_bank,Tamil Nadu,THIRUVALLUR,4427664849
Melmaruvathur Adiparasakthi Institute of Medical Sciences and Research Blood Bank,12.4348766,79.8141879,blood_bank,Tamil Nadu,VILLUPURAM,04427528302; 04427528303; 04427528304
Madurantakam Government Hospital Blood Bank,12.5094187,79.8903774,blood_bank,Tamil Nadu,KANCHIPURAM,4427555216
Karpaga Vinayaga Institute of Medical Sciences Blood Bank,12.5928815,79.9113429,blood_bank,Tamil Nadu,KANCHIPURAM,04427566050; 04427598484
Chengalpattu Medical College Hospital Blood Bank,12.677789,79.980222,blood_bank,Tamil Nadu,KANCHIPURAM,04427431909; 04427431221
SRM Medical College Hospital Blood Bank,12.8231651,80.0491199,blood_bank,Tamil Nadu,KANCHIPURAM,04427455707; 04427455510
Shri Sathya Sai Medical College and Research Institute Blood Bank,12.7418184,80.1328048,blood_bank,Tamil Nadu,KANCHIPURAM,04427440700044; 27440346; 04427440347
Chettinad Hospital and Research Institute Blood Bank,12.7959565,80.2156422,blood_bank,Tamil Nadu,KANCHIPURAM,444741000
Government Kasthurbai Gandhi Hospital's Blood Bank,13.0595144,80.2784139,blood_bank,Tamil Nadu,Chennai,04428545123; 04428545001
Government Royapettah Hospital Blood Bank,13.054631,80.2647346,blood_bank,Tamil Nadu,CHENNAI,04428482611; 04428483053
Madras Medical Mission(Institute of Cardio Vascular Diseses),13.0859575,80.1872322,blood_bank,Tamil Nadu,CHENNAI,4426561801
Apollo Hospitals Blood Bank,13.0707245,80.1506683,blood_bank,Tamil Nadu,CHENNAI,4426533429
ACS General Hospital,13.0579741,80.1269402,blood_bank,Tamil Nadu,CHENNAI,04423782176; 04423782186; 04426802133
Sri Ramachandra Medical College and Research Institute Blood Bank,13.038846,80.1435041,blood_bank,Tamil Nadu,CHENNAI,04424768027; 04424768031; 04424768033; 04445928500
Muthukumaran Medical College Hospital and Research Institute,13.0181602,80.1090485,blood_bank,Tamil Nadu,CHENNAI,04466344000; 04424784000
Madha Medical College and Hospital Blood Bank,13.0044062,80.111948,blood_bank,Tamil Nadu,Chennai,4424780333
Hindu Mission Hospital Blood Bank,12.9238319,80.1140106,blood_bank,Tamil Nadu,CHENNAI,04422262244; Extn193
Sree Balaji General Hospital Blood Bank,12.9541764,80.138011,blood_bank,Tamil Nadu,CHENNAI,4.42E+20
Government Hospital Tambaram Blood Bank,12.9453895,80.1345496,blood_bank,Tamil Nadu,KANCHIPURAM,4422382400
Global Hospital's Blood Bank,12.8985245,80.2067587,blood_bank,Tamil Nadu,CHENNAI,4422777000
Rotary Central TTK Voluntary Health Services (Dr Raganathan Memorial Blood Bank),13.002237,80.2471366,blood_bank,Tamil Nadu,CHENNAI,04422541692; 04422542829
Fortis Malar Hospitals Limited Blood Bank,13.0102236,80.2586031,blood_bank,Tamil Nadu,CHENNAI,4442892222
Dhanvandri Blood Bank and Research Centre of Sreemahalakshmi Charitable Health Trust,13.0310538,80.2317193,blood_bank,Tamil Nadu,CHENNAI,04424310660; 04424310610
Vijaya Hospital Blood Bank - Chennai,13.0502308,80.2084136,blood_bank,Tamil Nadu,CHENNAI,04424881392; 04424842931; 04424802221; 04424802165;
ESIC Hospital And Occupational Diseases Centre's Blood Bank,13.0345384,80.2074333,blood_bank,Tamil Nadu,CHENNAI,4424893714
MIOT Hospital Blood Bank,13.0212412,80.1858991,blood_bank,Tamil Nadu,CHENNAI,04422492288; 04442002288
St Thomas Blood Bank and Research Centre St Thomas Hospital,13.0124024,80.1963698,blood_bank,Tamil Nadu,CHENNAI,4422319393
Government Hospital Blood Bank - Sivakasi,9.4606477,77.7865317,blood_bank,Tamil Nadu,VIRUDHUNAGAR,4562220301
Government Taluk Hospital Blood Bank,9.6765488,77.2401832,blood_bank,Tamil Nadu,THE NILGIRIS,4262261222
Government Theni Medical College Hospital Blood Bank,10.0063,77.553826,blood_bank,Tamil Nadu,THENI,4546294053
"Government Head Quarters Hospital Blood Bank, Madurai",9.9623625,77.7888921,blood_bank,Tamil Nadu,MADURAI,4552252185
Leonard Hospital Blood Bank,10.165778,77.7609032,blood_bank,Tamil Nadu,DINDIGUL,4543262670
"Government Head quarters Hospital Blood Bank, dindigul",10.3638835,77.9760003,blood_bank,Tamil Nadu,DINDIGUL,45112424600
Dindigul Blood Bank,10.3665147,77.9776331,blood_bank,Tamil Nadu,DINDIGUL,4512427143
Christian Fellowship Hospital Blood Bank,10.4879227,77.7520533,blood_bank,Tamil Nadu,DINDIGUL,04553241226; 04553241379
Christian Community Health Center and Hospital Blood Bank,10.545963,77.7256114,blood_bank,Tamil Nadu,DINDIGUL,4553249050
"Government Hospital Blood Bank, palani",10.448892,77.5166351,blood_bank,Tamil Nadu,DINDIGUL,4542248553
Ganga Hospital Blood Bank,11.0260479,76.9525404,blood_bank,Tamil Nadu,COIMBATORE,4.22E+20
Kongu Nadu Hospital Private Limited Blood Bank,11.0180648,76.9605535,blood_bank,Tamil Nadu,COIMBATORE,04224316000; 04222494303
Sheela Hospitals Blood Bank,11.0185071,76.9606581,blood_bank,Tamil Nadu,COIMBATORE,4224334500
The Coimbatore Bio Medical Services Blood Bank,11.0148584,76.9532673,blood_bank,Tamil Nadu,COIMBATORE,4222552297
Lions Club of Coimbatore Legend Blood Bank Research Centre,11.0058505,76.9509217,blood_bank,Tamil Nadu,COIMBATORE,04222477373; 04222470046
IMA Rotary Midtown Mahaveer Blood Bank,11.0061691,76.9605938,blood_bank,Tamil Nadu,COIMBATORE,04226513322; 04226563322; 04222471824
Coimbatore Medical College Hospital Blood Bank,10.9957164,76.9708277,blood_bank,Tamil Nadu,COIMBATORE,04222301393; 04222300871
G. Kuppusamy Naidu Memorial Hospital Blood Bank,11.0121785,76.9808096,blood_bank,Tamil Nadu,Coimbatore,04224305336;04222245000
Ramakrishna Hospital Blood Bank,11.0235982,76.9760245,blood_bank,Tamil Nadu,COIMBATORE,4224500000
Swaasam Blood Bank (Run by Any time Blood Voluntary Association),11.0242596,76.9843514,blood_bank,Tamil Nadu,COIMBATORE,
BGS Gleneagles Hospitals,12.9029457,77.497285,blood_bank,Karnataka,BENGALURU RURAL,8026255555
Rajarajeshwari Medical College Hospital Blood Bank,12.896344,77.4618825,blood_bank,Karnataka,BENGALURU URBAN,8065666768
"Medical College Hospital Blood Bank, Bellary",15.1569711,76.8975377,blood_bank,Karnataka,BELLARY,8392235356
Manipal Hospital Transfusion Services Blood Bank,12.9587377,77.6490927,blood_bank,Karnataka,BENGALURU URBAN,8025024357
Hindustan Aeronautics Limited - HAL Hospital Blood Bank,12.9627474,77.6655856,blood_bank,Karnataka,BENGALURU URBAN,8022314632
Sakra World Hospital Blood Bank,12.9323425,77.685214,blood_bank,Karnataka,BENGALURU URBAN,8049694916
Vydehi Institute of Medical Science Hospital Blood Bank,12.9756295,77.7293135,blood_bank,Karnataka,BENGALURU URBAN,8028410874
Sri Sathya Sai Institute of Higher Medical Sciences Blood Bank,12.9814332,77.7292129,blood_bank,Karnataka,BENGALURU URBAN,08028411500; 08028004600
M/s. East Point Hospital Blood Bank Virgonagar,13.0537687,77.7173308,blood_bank,Karnataka,BENGALURU URBAN,8025136246
MVJ Medical College and Research Hospital Blood Bank,13.0772732,77.8114977,blood_bank,Karnataka,BENGALURU RURAL,8027931473
Indian Red Cross Society Blood Bank Chikkaballapur,13.438074,77.7291955,blood_bank,Karnataka,Chikkaballapur,8156272118
Vijayanagar Hospital Blood Bank,12.9718121,77.5372486,blood_bank,Karnataka,BENGALURU URBAN,8023358800
S. K. Voluntary Blood Bank,12.974452,77.5494339,blood_bank,Karnataka,BENGALURU URBAN,8023103524
Akshay Voluntary Blood Bank,12.9898745,77.5528128,blood_bank,Karnataka,BENGALURU URBAN,8023147303
"E. S. I. Hospital Blood Bank, Rajajinagar",12.9907376,77.5533566,blood_bank,Karnataka,BENGALURU URBAN,8023013808
Navarang Blood Bank,12.998505,77.5527035,blood_bank,Karnataka,BENGALURU URBAN,8023521233
Manipal Hospital Blood Bank,13.014269,77.5560924,blood_bank,Karnataka,BENGALURU URBAN,8039898968
Kempegowda Medical Service Trust - Millennium Blood Bank,13.0195217,77.5578895,blood_bank,Karnataka,BENGALURU URBAN,8023571001
M. S. Ramaiah Medical Teaching Hospital Blood Bank,13.0295016,77.5684762,blood_bank,Karnataka,BENGALURU URBAN,8022183100
M/s. Aster CMI Hospital Blood Bank,13.0544219,77.5911999,blood_bank,Karnataka,BENGALURU URBAN,8043420213
Bangalore Baptist Hospital Blood Bank,13.0357887,77.589498,blood_bank,Karnataka,BENGALURU URBAN,8022024700
Grace Blood Bank and Laboratory,13.0228765,77.5848772,blood_bank,Karnataka,BENGALURU URBAN,8023431233
Dr. B. R. Ambedkar Medical College Hospital Blood Bank,13.0250774,77.6140174,blood_bank,Karnataka,BENGALURU URBAN,8025463442
Mediscope Blood Bank,13.0112036,77.6161659,blood_bank,Karnataka,BENGALURU URBAN,8025466554
Bangalore Institute of Oncology Blood Bank,12.9643654,77.5897381,blood_bank,Karnataka,BENGALURU URBAN,8040206121
Indian Red Cross Society - Karnataka Red Cross Blood Bank,12.9843552,77.5787035,blood_bank,Karnataka,BENGALURU URBAN,8022268435
K. C. General Hospital Blood Bank,12.9960444,77.5693788,blood_bank,Karnataka,BENGALURU URBAN,8023343791
Bengaluru Rotary TTK Medical Service Trust Blood Bank,12.971833,77.6566954,blood_bank,Karnataka,BENGALURU URBAN,08025293486; 9900153000; 9900163000
Bangalore Lions Service Trust - Lions Blood Bank,12.9916942,77.5952446,blood_bank,Karnataka,BENGALURU URBAN,8022266807
Fortis Hospital Private Limited Blood Bank,12.9884377,77.5944668,blood_bank,Karnataka,BENGALURU URBAN,08041994515; 08022261037
Bowring and Lady Curzon Hospitals Blood Bank,12.9823231,77.6038881,blood_bank,Karnataka,BENGALURU URBAN,8025591362
Government Haji Sir Ismail Sait Gosha Hospital Blood Bank,12.9838508,77.5993699,blood_bank,Karnataka,BENGALURU URBAN,8022866529
District Hospital Blood Bank - Madikeri,12.4189797,75.7423975,blood_bank,Karnataka,KODAGU,8272223445
Vadakara Co-Operative Hospital's Blood Bank,11.5896874,75.5953145,blood_bank,Kerala,Kozhikode,+91-496 2520600
Josgiri Hospital's Blood Bank,11.7591333,75.4788154,blood_bank,Kerala,Kannur,+91-4902341130
Kannur Medical College and Hospital's Blood Bank,11.8764171,75.4989213,blood_bank,Kerala,Kannur,+91-4972855001
Kannur District Hospital's Blood Bank,11.8608779,75.3700009,blood_bank,Kerala,Kannur,+91-4972733500
Pariyaram Medical College Hospital's Blood Bank,12.0717822,75.2931945,blood_bank,Kerala,Kannur,+91-4972808080; +91-4972808111
Payyannur Co-Operative Hospital's Blood Bank,12.1061097,75.2097751,blood_bank,Kerala,Kannur,+91-4985207372; +91-4985207373; +91-4985204051
Government Hospital's Blood Bank,10.9742793,76.2319033,blood_bank,Kerala,Malappuram,+91-4933226505
Government Lawley Hospital Blood Bank,11.3480158,76.7935297,blood_bank,Tamil Nadu,THE NILGIRIS,4232231050
"Military Hospital Blood Bank, Wellington",11.3672532,76.7826466,blood_bank,Tamil Nadu,THE NILGIRIS,4232200154
Gudalur Adivasi Hospital Blood Bank (Previously named as Ashwini hospital & under Ashwini trust),11.5021207,76.4989427,blood_bank,Tamil Nadu,THE NILGIRIS,4262261645
D. M. Wayanad Institute of Medical Sciences Blood Bank,11.5606728,76.1613813,blood_bank,Kerala,Wayanad,+91-4936287000
Santhi Hospital's Blood Bank,11.3625475,75.9648867,blood_bank,Kerala,Kozhikode,+91-4952282550
St. Joseph Hospital's Blood Bank,11.3314898,75.9859863,blood_bank,Kerala,Kozhikode,+91-4952298536; 04952297492; 04952295024
K M C T Hospital Blood Bank,11.3256894,75.970408,blood_bank,Kerala,KOZHIKODE,+91-4952293500; +91-4952720466
Medical College Hospital Blood Bank - Kozhikode,11.2716593,75.8377728,blood_bank,Kerala,KOZHIKODE,+91-4952351134
Government General Hospital's Blood Bank,11.256852,75.7710153,blood_bank,Kerala,Kozhikode,+91-4952365367; +91-4952365917
Baby Memorial Hospital's Blood Bank,11.2601008,75.7925642,blood_bank,Kerala,Kozhikode,+91-4952777777
MIMS Hospital's Blood Bank,11.2462991,75.7985039,blood_bank,Kerala,Kozhikode,+91-4832807000
P.V.S. Hospital's Blood Bank,11.2426806,75.7829873,blood_bank,Kerala,Kozhikode,+91-4952705045
Government Woman and Child Hospital's Blood Bank,11.2507983,75.7831017,blood_bank,Kerala,Kozhikode,+91-4952721998
National Hospital's Blood Bank,11.2595721,75.7812425,blood_bank,Kerala,Kozhikode,+91-4952723061
Kozhikode District Co-operative Hospital's Blood Bank,11.2769623,75.7846758,blood_bank,Kerala,Kozhikode,+91-4952766820
MMC Hospital's Blood Bank,11.4338951,75.7752478,blood_bank,Kerala,Kozhikode,+91-4962701666
Sri Kumaran Hospital Blood Bank,11.1307158,77.3411,blood_bank,Tamil Nadu,TIRUPPUR,4214330000
Government Thoothukudi Medical College Hospital Blood Bank,8.7981605,78.1362402,blood_bank,Tamil Nadu,Thoothukudi (TUTICORIN),4622321052
Tuticorin Blood Bank,8.807981,78.1467216,blood_bank,Tamil Nadu,Thoothukudi (TUTICORIN),4614200666
Alphonsa Hospital's Blood Bank,9.6650906,77.1586548,blood_bank,Kerala,Idukki,+91-4868263873
SR Medical College and Research Centre's Blood Bank,8.7031213,76.756424,blood_bank,Kerala,Thiruvananthapuram,+91-4702611176
St. Joseph's Hospital's Blood Bank,9.0926675,76.8593256,blood_bank,Kerala,Kollam,+91-4752352333
Mar Gregorious Memorial Muthoot Medical Centre Blood Bank,9.3380566,76.7095228,blood_bank,Kerala,Pathanamthitta,+91 468 2314000
Modern Hospital's Blood Bank,10.2346491,76.1897442,blood_bank,Kerala,Thrissur,+91 480 3953397
"Government Hospital Blood Bank, Sankarankovil",9.167378,77.5361308,blood_bank,Tamil Nadu,TIRUNELVELI,4636222399
Morigaon Civil Hospital Blood Bank,26.2511194,92.356043,blood_bank,Assam,Morigaon,
Maharani Hospital Blood Bank,19.0849173,82.023966,blood_bank,Chhattisgarh,BASTAR,7782225958
"Odisha Red Cross Blood Bank, Malkangiri",18.3377075,81.8759148,blood_bank,Odisha,MALKANGIRI,6861231200
"Government Hospital Blood Bank, Hosur",12.7292055,77.8253514,blood_bank,Tamil Nadu,KRISHNAGIRI,4344222635
Arogya Blood Bank (A Unit of Arogya Seva Hospitals Private Limited),12.7281917,77.8243294,blood_bank,Tamil Nadu,KRISHNAGIRI,4344225555
"Government Head Quarters Hospital Blood Bank, Metturdam",11.7958231,77.7991211,blood_bank,Tamil Nadu,SALEM,4298245400
"Government Hospital Blood Bank, Attur",11.5971363,78.6013412,blood_bank,Tamil Nadu,SALEM,4282243771
Government Head Quarters Hospital Blood Bank - Kallakurichi,11.7374436,78.9585833,blood_bank,Tamil Nadu,VILLUPURAM,4151222527
Dhanalakshmi Srinivasan Medical College and Hospital Blood Bank,11.1974231,78.8741299,blood_bank,Tamil Nadu,PERAMBALUR,4328327999
Chennai Medical College Hospital and Research Centre's Blood Bank,10.9543245,78.7548494,blood_bank,Tamil Nadu,TIRUCHIRAPPALLI,4314298925
Church of South India Mission General Hospital Blood Bank,10.8231554,78.6746353,blood_bank,Tamil Nadu,TIRUCHIRAPPALLI,04312761927; 04312762879; 04312760672
Southern Railway Hospital Blood Bank,10.7856484,78.725156,blood_bank,Tamil Nadu,TIRUCHIRAPPALLI,4312490708
"Government Head Quarters Hospital Blood Bank, Poudukkottai",10.378673,78.81845,blood_bank,Tamil Nadu,PUDUKKOTTAI,4332228111
"Government Head Quarters Hospital Blood Bank, sivagangai",10.0637695,78.7775022,blood_bank,Tamil Nadu,SIVAGANGA,4565221782
"Government Hospital Blood Bank, Aranthangi",10.1800118,79.0001991,blood_bank,Tamil Nadu,PUDUKKOTTAI,4371270544
"Government Hospital Blood Bank, pattukottai",10.4211075,79.3178692,blood_bank,Tamil Nadu,THANJAVUR,4373252080
Meenakshi Hospital Blood Bank,10.7451063,79.1119856,blood_bank,Tamil Nadu,THANJAVUR,4362226474
Thanjavur Medical College Hospital Blood Bank,10.7584479,79.1040221,blood_bank,Tamil Nadu,THANJAVUR,04362246452; 04362240951; 04362240124
Sri Kaali Blood Bank,10.7849976,79.120798,blood_bank,Tamil Nadu,THANJAVUR,4352426037
Government Raja Mirasudar Hospital Blood Bank,10.7854482,79.1363507,blood_bank,Tamil Nadu,THANJAVUR,4362276880
The New Century Medical & Education Foundation Trust Blood Bank & Aphaeresis Centre,18.564619,73.8010126,blood_bank,Maharashtra,PUNE,2046608585
NMDC Project Hospital Blood Bank,18.6344385,81.2529253,blood_bank,Chhattisgarh,DANTEWADA,7857255229
NMDC Apollo Hospital Blood Bank,18.7037508,81.2485014,blood_bank,Chhattisgarh,DANTEWADA,7857230050
Sewa Blood Bank,21.8925683,83.4015727,blood_bank,Chhattisgarh,RAIGARH,7762225400
O.P. Jindal Hospital & Research Centre Blood Bank,21.9274697,83.3590683,blood_bank,Chhattisgarh,RAIGARH,07762227034(EXT:43659)
"Bilash Blood Bank,KORBA",22.3587151,82.7201847,blood_bank,Chhattisgarh,KORBA,7759644655
"Indira Gandhi District Hospital Blood bank, Kobra",22.3645282,82.743713,blood_bank,Chhattisgarh,KORBA,
Surguja District Hospital Blood Bank,23.1095546,83.1946932,blood_bank,Chhattisgarh,SURGUJA,
Tej Blood Bank,23.117383,83.1913383,blood_bank,Chhattisgarh,SURGUJA,7774222666
"Holy Cross Hospital Blood Bank, Ambikapur",23.1342604,83.1935261,blood_bank,Chhattisgarh,SURGUJA,7774223733
"Distrcit Hospital Baikunthpur Blood bank, Korea",23.2601126,82.5646492,blood_bank,Chhattisgarh,KOREA,
Kawardha District Hospital Blood Bank,22.0087367,81.217771,blood_bank,Chhattisgarh,KABIRDHAM (Kawardha),07741235553; 07741233413
Christian Hospital Blood Bank - Mungeli,22.0706583,81.6875539,blood_bank,Chhattisgarh,MUNGELI,775564003
Apollo Hospital Blood Bank - Bilaspur,22.0839347,82.1771157,blood_bank,Chhattisgarh,BILASPUR,07752248300-1030/31
Ekta Blood Bank,22.0786225,82.1451386,blood_bank,Chhattisgarh,BILASPUR,
Chhattisgarh Insititute of Medical Sciences (CIMS) Blood Bank,22.0887206,82.1520212,blood_bank,Chhattisgarh,BILASPUR,07752221425; 07752230030
"Shri Rawatpura Sarkar Lok Kalyan Trust, Bilasa Blood Bank",22.0867223,82.1525095,blood_bank,Chhattisgarh,BILASPUR,7752656422
Bilaspur District Hospital Blood Bank,22.0741842,82.1584077,blood_bank,Chhattisgarh,BILASPUR,7752421898
Thawait Blood Bank,21.2468098,81.6415769,blood_bank,Chhattisgarh,RAIPUR,7714221709
District Hospital Blood Bank Baloda Bazar,21.6632098,82.1493121,blood_bank,Chhattisgarh,BALOD,
Asian Institute of Medical Sciences Blood Bank,28.426135,77.3000032,blood_bank,Haryana,FARIDABAD,01294253196; 01294253197
Jaypee Hospital's Blood Bank,28.5154352,77.3713553,blood_bank,Uttar Pradesh,GAUTAM BUDDHA NAGAR,1204582868
Yatharth Wellness Super Speciality Hospital and Heart Care's Blood Bank,28.5322074,77.3844391,blood_bank,Uttar Pradesh,GAUTAM BUDDHA NAGAR,
Prayag Hospital and Research Centre's Blood Bank,28.5636354,77.3654041,blood_bank,Uttar Pradesh,GAUTAM BUDDHA NAGAR,1204021900
Dr. Bhimrao Ambedkar Multi Specialty Hospital's Blood Bank,28.5766901,77.3372832,blood_bank,Uttar Pradesh,GAUTAM BUDDHA NAGAR,
Rotary Noida Research and Social Welfare Trust's Blood Bank,28.5769745,77.3393847,blood_bank,Uttar Pradesh,GAUTAM BUDDHA NAGAR,1204282685
Prakash Hospital's Blood Bank,28.5855604,77.3494846,blood_bank,Uttar Pradesh,GAUTAM BUDDHA NAGAR,1202505264
Metro Hospital and Heart Institute's Blood Bank,28.5974385,77.3379625,blood_bank,Uttar Pradesh,GAUTAM BUDDHA NAGAR,01202533491; 01202533489
"Yashoda Hospital and Research Centre Limited's Blood Bank , Kaushambi",28.6449809,77.3287484,blood_bank,Uttar Pradesh,GHAZIABAD,1204181900
District Hospital Blood Bank - Alirajpur,22.3119147,74.3552273,blood_bank,Madhya Pradesh,ALIRAJPUR,7394235504
District Hospital Blood Bank - Barwani,22.0343469,74.8997694,blood_bank,Madhya Pradesh,BARWANI,7290222025
Sahada Blood Bank - Shree Swami Samartha Vaidyakiya Shaikshanik and Sanshodhan Sanstha,21.5533473,74.4742759,blood_bank,Maharashtra,NANDURBAR,
Shahada Blood Bank (Whole Human Blood),21.5547842,74.472928,blood_bank,Maharashtra,DHULE,2565223446
Jankalyan Rakta Pedhi,21.3597342,74.2506748,blood_bank,Maharashtra,NANDURBAR,02564226934; 02564226935; 02564222226
"District General Hospital Blood Bank, Nandurbar",21.3386847,74.2344823,blood_bank,Maharashtra,NANDURBAR,02564202510; 02564210135; 02564226225; 02564210122
"General Hospital Blood Bank, Ahwa",20.7619351,73.6893421,blood_bank,Gujarat,DANG,2631220205
Smt. Puriben Popat Lakha Blood Bank,20.378896,72.924175,blood_bank,Gujarat,VALSAD,02602434600; 02602434601
"Nukem Blood Bank, Vapi",20.38179,72.9212916,blood_bank,Gujarat,VALSAD,02602430654; 02602400053; 02606638888
SBPP Cooperative Bank Foundation Blood Bank,20.5116118,72.9476161,blood_bank,Gujarat,VALSAD,2602374422
General Hospital and GMERS Medical College Blood Bank,20.5934901,72.9204521,blood_bank,Gujarat,VALSAD,02632251744; 02632251911
Valsad Raktdan Kendra,20.609704,72.9290995,blood_bank,Gujarat,VALSAD,02632242944; 02632253650
Surat Raktdan Kendra,21.1728519,72.8301099,blood_bank,Gujarat,SURAT,02612630114; 02612635533
Kumarpal Gandhi Blood Bank,21.6300477,72.9968266,blood_bank,Gujarat,BHARUCH,2646244530
"Indian Red Cross Society Blood Bank, Kapadwanj",23.0226211,73.0776832,blood_bank,Gujarat,KHEDA,2691263255
"General Hospital Blood Bank, Ahmedabad",23.0280519,72.6237971,blood_bank,Gujarat,AHMEDABAD,07922745770; 07922743935
"General Hospital Blood Bank, Morbi",22.8155408,70.8311373,blood_bank,Gujarat,RAJKOT,02822230538; 02822230203
G.G.Hospital Blood Bank,22.4785225,70.0641838,blood_bank,Gujarat,JAMNAGAR,2882661052
"Matrushri Meghbai Pramji Jetha Hospital and Research Centre, Bhuj",23.2329812,69.6625873,blood_bank,Gujarat,KACHCHH,02832231133; 02832231144
"General Hospital Blood Bank, Palanpur",24.1751325,72.4347195,blood_bank,Gujarat,Banaskantha,2742253083
"M. U. Pethani Voluntary Blood Bank, Palanpur",24.1721673,72.4372427,blood_bank,Gujarat,Banaskantha,02742246914;02742245899
GMERS Medical College Attach Sir Pratap General Hospital Blood Bank,23.5752689,72.9673585,blood_bank,Gujarat,Sabarkantha,02772246618; 02772241551
"Patel Voluntary Blood Bank, Modasa",23.4636092,73.2981902,blood_bank,Gujarat,Sabarkantha,
"Late N.H. Ramani Memorial Voluntary Blood Bank and Navchetan Pathology Lab, Modasa",23.4602089,73.2969765,blood_bank,Gujarat,Sabarkantha,02774247890; 02774243690
Samarth Raktdan Kendra,22.949292,73.6302437,blood_bank,Gujarat,Dahod,02673223139; 02673242514
"General Hospital Blood Bank, Godhra",22.7724657,73.6205435,blood_bank,Gujarat,Panchmahal,2672243192
