name,lat,lng,type,state,district,phone
Police Station Sahnewal,30.8352537,75.9745287,police_station,,,
Thudiyalur Police Station,11.0820675,76.9412411,police_station,,,
Mambalam Police Station,13.0349573,80.22946,police_station,,,
Royapettah PS,13.0520106,80.2637348,police_station,,,
Nungambakkam F3 police station,13.0596173,80.2427681,police_station,,,
Police Station,26.6615399,79.1742208,police_station,,,
Police Station,18.5075612,73.9173998,police_station,,,
Hebbagodi Police Station,12.8263652,77.6820851,police_station,,,
Police station Shimla puri,30.8887587,75.8614661,police_station,,,
"Commissioner Of Police,  Residence",30.9155653,75.8384698,police_station,,,
Police Station,25.2719364,83.1453826,police_station,,,
Chatham Police Station,11.6830489,92.7236991,police_station,,South Andaman,
Police Station,25.3566904,82.9550377,police_station,,,
DCP Bangalore North Traffic Police,13.0181973,77.5581675,police_station,,,
Road closed,32.8698242,75.8617488,police_station,,,
Police Station,32.6743509,77.2006462,police_station,,,
S-8 Adambakkam Police Station,12.9893957,80.2019683,police_station,,,
Teynampet E3 PS,13.048651,80.2494881,police_station,,,
Jayanagar 4th Block Police Station,12.9285653,77.5813657,police_station,,,
Police Station,10.6571159,77.0083512,police_station,,,
Police Station,10.6565729,77.0184714,police_station,,,
Police Station,28.5779649,77.3375263,police_station,,,
"Police Station, Museum",8.5093212,76.9567814,police_station,,,
Adyar J2,12.997814,80.2557176,police_station,,,
Police Station,12.9814685,80.192063,police_station,,,
Central Station PS,13.0818276,80.2755071,police_station,,,
Chennai Central RPF,13.0830613,80.2732996,police_station,,,
Osmania University Police Station,17.4215275,78.5259566,police_station,,,
Police Station Sadar,28.4291623,77.0375117,police_station,,,
Sadar Police Station,28.4640597,77.0360665,police_station,,,
Sushant Lok Police Station,28.462993,77.0728175,police_station,,,
Sector 18 Police Station,28.4863642,77.0660949,police_station,,,
RTO Check Post,8.3307076,77.1742787,police_station,,,
Tax Check Post,8.3242251,77.1817641,police_station,,,
B1 Saint Thomas Mount PS,12.9991212,80.200262,police_station,,,
Khar Police Station,19.064037,72.8371137,police_station,,,
Madhapur Police Station,17.4398726,78.3960744,police_station,,,
Kalpakkam Police Station,12.5037687,80.1533696,police_station,,,
Dharapuram Police Station,10.7312269,77.5240154,police_station,,,
Sadras Police Station,12.5251654,80.1626667,police_station,,,
SR Nagar Police Station,17.4414291,78.4478427,police_station,,,
Koyambedu Police Station,13.0696407,80.2004587,police_station,,,
E1 Police Station,11.412076,76.6884781,police_station,,,
"Office, Police Commissioner",13.0100865,80.1990931,police_station,,,
T15 SRMC PS,13.0341993,80.1602489,police_station,,,
KK Nagar PS,13.0415108,80.2054415,police_station,,,
N4 PS,13.1345408,80.2974596,police_station,,,
Police Station,30.8882847,75.8046347,police_station,,,
Vigilance and Security Office,13.6799238,79.3508215,police_station,,,
Virugambakkam Police Station,13.0491123,80.1992562,police_station,,,
Police Station,13.03694,80.2674177,police_station,,,
Cubbon Park Police Station,12.9762399,77.5983458,police_station,,,
Maleshwaram Police station,12.9966811,77.5696708,police_station,,,
Division No. 6,30.8939791,75.8713574,police_station,,,
DSP Industrial Area,30.8855823,75.8872704,police_station,,,
Police Post Sherpur,30.8853981,75.8874764,police_station,,,
Hazratganj Police Station,26.8471889,80.9460958,police_station,,,
Police Station,30.48908,78.04183,police_station,,,
Electronics City Police Station,12.839963,77.6631389,police_station,,,+918022943469
Model Town,30.8884442,75.8403959,police_station,,,
"Police Station, Karamana",8.4808658,76.9686113,police_station,,,
Police Station Bhondsi,28.3445779,77.0681342,police_station,,,
Police Station Sector 56,28.4248272,77.1031506,police_station,,,
Thana Kundli,28.8638535,77.1233526,police_station,,,
Murthal Police Station,29.026639,77.0732024,police_station,,,
Jalahalli Police Station,13.0486481,77.5495673,police_station,,,
Holi Police Station,32.3263179,76.5577044,police_station,,,
Police Post Jari,32.0022511,77.2537421,police_station,,,
Police Aid Post dharuheda,28.21575,76.7947172,police_station,,,
Laxmipuram Police Station,12.2976467,76.6428237,police_station,,,
Security Office of Dalai Lama,32.2387214,76.3245325,police_station,,,
Kulgaon Police Station,19.1575441,73.2397067,police_station,,,
Shipra Police station,28.6378072,77.3782631,police_station,,,
Sundernagar Colony Police Station,31.5317179,76.9084089,police_station,,,
"Police Station, Sundernagar",31.5154506,76.8843342,police_station,,,
Lokmanya Tilak Road Police Station,18.9453708,72.8303315,police_station,,,
Azad Maidan Police Station,18.9415892,72.8329727,police_station,,,
Police Station,31.2136873,75.4257645,police_station,,,
Deputy Commissioner of Police Office (South Zone),17.3671554,78.479458,police_station,Telangana,Hyderabad,91 40 2785 4760; 91 40 2452 8888
Police Station,17.3655267,78.4999031,police_station,,,
Police Station,17.3714465,78.4820816,police_station,,,
Chaura Police Post,31.5650189,77.8427774,police_station,,,
Police Station Bhabhanagar,31.5654024,77.9346545,police_station,,,
1 Town,17.24898,80.1399044,police_station,,,
Nallakunta Police Station,17.4076968,78.5133112,police_station,,,
Jadavpur Police Station,22.5027682,88.3677291,police_station,,,
Fort Kochi Police Station,9.9673515,76.2440364,police_station,,,
Police Headquarters,12.9695368,77.5877623,police_station,,,
Gokhale Road Police Quarters,22.5393378,88.344409,police_station,,,
Railway Police station,17.249763,80.1389008,police_station,,,
Police Station,17.5923092,74.4511673,police_station,,,
Police Station,18.5243076,73.8788901,police_station,,,
Sambhaji Police Chowki,18.5131785,73.8438921,police_station,,,
Police Booth,13.0737484,80.1923421,police_station,,,
Police Booth,13.0656907,80.1935705,police_station,,,
Tilaknagar Police Station,12.928367,77.5905691,police_station,,,
Police Station,17.4265322,78.5493729,police_station,,,
"Police Station, Marangattupilly",9.7470249,76.6096248,police_station,,,
Police Station Sultanpur,32.5603108,76.1175354,police_station,,,
Traffic police,17.2516904,80.1430383,police_station,,,
Police Station,11.277733,77.5865812,police_station,,,
Saifabad Police Station,17.4110866,78.4646076,police_station,,,
Velachery,12.9850126,80.2208713,police_station,,,
Satara Rural Police Station,17.6877644,73.9907808,police_station,,,
Vijay Nagar Police Station,22.7515954,75.8951965,police_station,,,
Bawana Police station,28.8055119,77.0256424,police_station,,,
Kaza Police Station,32.2281116,78.0670135,police_station,,,
Gubbi Police Station,13.3094556,76.948541,police_station,,,
Bhanodi Police Post,32.9622581,76.180578,police_station,,,
"Police Station, Panniankara",11.226804,75.791689,police_station,,,
PS Jodha,30.7936369,75.7500555,police_station,,,
"Police Station, Ramapuram",9.7993343,76.6588351,police_station,,,+914822260252
Police Station,10.9952707,76.9681824,police_station,,,
District Police Office,10.9990022,76.9677805,police_station,,,
Div No. 1,30.9167914,75.850855,police_station,,,
Police Station Udaipur,32.7233785,76.667878,police_station,,,
Begumpet Police Station,17.4439607,78.4747838,police_station,,,
Indira Nagar Police Station,12.983019,77.6384106,police_station,,,
Police Station Manali,32.2368927,77.1863189,police_station,,,
Null Bazaar Police Chowkie,18.9569275,72.8290998,police_station,,,
Pydhoni Police Station,18.9541719,72.832021,police_station,,,
Dongri Police Station,18.9621396,72.8390488,police_station,,,
Sir JJ Marg Police Station,18.963006,72.832291,police_station,,,
Ploice Lines,30.3616575,75.5320264,police_station,,,
Karkhana Traffic Police Station,17.4618242,78.5004605,police_station,,,
Begumpet Traffic Police,17.4436297,78.4790905,police_station,,,
Police Chownki Merado Thana Sadar,30.8634232,75.8522202,police_station,,,
police station,30.8724475,75.8403055,police_station,,,
Police station,30.866248,75.8700805,police_station,,,
S.S.P Office,30.3721562,75.5366281,police_station,,,
Police Station,17.7348024,83.2812926,police_station,,,
Police Station,17.4223157,78.4649177,police_station,,,
Police Station DABA(URBAN),30.8673175,75.8859333,police_station,,,
Police Booth,13.0447322,80.1862162,police_station,,,
Three Town police station,16.2381436,80.6429327,police_station,,,
Jeevan Bhima Nagar Police Station,12.9677712,77.6556937,police_station,,,
Mico Layout Police Station,12.9086369,77.6105652,police_station,,,
E6,13.2718063,80.2625092,police_station,,,
Girinagar Police Station,12.935917,77.5439681,police_station,,,
Chintadripet,13.0749088,80.2725042,police_station,,,
Sanjayanagar Police station,13.0335598,77.5758979,police_station,,,
Police Station,27.354092,95.315988,police_station,,,
Hampi Traffic Police,15.3340418,76.4666205,police_station,,,
Hampi Police Station,15.3341937,76.4658087,police_station,,,
Police Station,27.1843431,94.9151069,police_station,,,
S6 Shankar Nagar Police Station,12.9692797,80.1257959,police_station,,,
Vadapalani Police station,13.049673,80.2117315,police_station,,,
Aarey Police Station,19.1664849,72.8543819,police_station,,,
Goregaon (E) Police Station,19.1558742,72.8576756,police_station,,,
Police Station Dornakal,17.4448659,80.1517851,police_station,,,
Central Crime Station,17.2433951,80.1408514,police_station,,,
Ram Bagh Police Station,31.6304462,74.877801,police_station,,,
Police Lines,31.109083,77.1637899,police_station,,,
Shalimar Bagh Police Station,28.7170924,77.1571367,police_station,,,
Tinsukia Police Station,27.4879061,95.3569119,police_station,,,
Ramapuram Police Station,13.0317737,80.1790069,police_station,,,
Police Station,10.046978,76.315901,police_station,,,
Seshadripuram Police Station,12.9881279,77.5744324,police_station,,,
Lokmanya Tilak Police Chowkie Beat No 4,18.9474438,72.833389,police_station,,,
Lokmanya Tilak Police Station,18.9463293,72.8331294,police_station,,,
Police Station,17.4211388,78.4839215,police_station,,,
Ramgopalpet Police Station,17.4361643,78.4884749,police_station,,,
Bowenpally Police Station,17.4648512,78.472566,police_station,,,
Ukkadam Police Station(B2),10.9890037,76.9615341,police_station,,,
Womens Police Station,11.0155688,76.9683463,police_station,,,
Kattor Police Station,11.0153033,76.968307,police_station,,,
Madukkarai Police Station,10.911453,76.9490401,police_station,,,
Sea Beach Police Station,19.7970994,85.8258784,police_station,,,
Puri Town Police Station,19.8087658,85.8228135,police_station,,,
Rajaji Nagar Police Station,12.9945063,77.554298,police_station,,,
Amberpet Police Station,17.389303,78.5182437,police_station,,,
Police Station,10.3289364,76.9574477,police_station,,,
Police Station,28.6345193,77.1810077,police_station,,,
Bistupur Police Station.,22.7979889,86.1844592,police_station,,,
Vikas Puri,28.6301441,77.0682683,police_station,,,
Kolkata Police Headquarters,22.5725398,88.3524126,police_station,,,
TIRUPPUR NORTH,11.107892,77.3450511,police_station,,,
Police Station,31.6317904,76.8349647,police_station,,,
Khammam Rural,17.2441946,80.1073612,police_station,,,
"Police Station,Varkala",8.7342537,76.7261267,police_station,,,
Police Station,18.9444479,72.8328893,police_station,,,
Police Station,15.3518069,76.1541306,police_station,,,
SI office,15.3526763,76.1544049,police_station,,,
City Police Station,30.4073843,74.027719,police_station,,,
Police Station,26.2655112,73.0337885,police_station,,,
Hebbal Police Station,13.0386192,77.5896244,police_station,,,
Police Station,18.9675282,72.8323654,police_station,,,
Police booth,12.9651635,80.2060352,police_station,,,
POLICE STATION KHUMANO,30.8120438,76.3517004,police_station,,,
POLICE STATION GHARUAN,30.7802037,76.5412776,police_station,,,
Police Station,30.8461126,75.6749604,police_station,,,
Police Station,30.6079477,74.2573519,police_station,,,
Marine Drive Police Station,18.9302617,72.8243459,police_station,,,
Subedari Police Station,17.9957476,79.5435257,police_station,,,
Hanamkonda Police Station,18.0070039,79.5686364,police_station,,,
D.C.Office,30.9268318,74.6134071,police_station,,,
main gate D.C.office,30.9279094,74.6134744,police_station,,,
Sadar Police Station Ferozepur Cantt,30.9286212,74.6275385,police_station,,,
Police chowki Basti tainkan wali,30.9373245,74.6228989,police_station,,,
"Civil Lines Police Station, Rampur",28.7817423,79.0196213,police_station,,,
"Police Post Kaushambi, Police Station Indirapuram",28.6421878,77.3270651,police_station,,,
Police station,30.8683606,75.9788712,police_station,,,
police station mehtiana,31.3776279,75.8223977,police_station,,,
Juna Rajawada Police Station,16.6945019,74.2235288,police_station,,,
Police Station,13.1244932,80.2771688,police_station,,,
Ashok Vihar Police Station,28.6925224,77.1739049,police_station,,,
Thana Samana,30.1559043,76.1670411,police_station,,,
Karamadai Police Station,11.2395224,76.9595897,police_station,,,
"Police station, block road, sudhar",30.7725876,75.6470124,police_station,,,
Malkajgiri Police Station,17.4498705,78.5374144,police_station,,,
police station dehlon,30.7433185,75.8492807,police_station,,,
ABIDS Police Station,17.3946616,78.4852099,police_station,,,
Porur Police Station,13.0343074,80.1601292,police_station,,,
Vyali Kaval Police Station,13.0015732,77.578628,police_station,,,
Tiptur Rural Police station,13.2608896,76.4609816,police_station,,,
Traffic Police Station Udupi,13.3321915,74.7481242,police_station,,,
Harohalli Police station,12.6804936,77.4693429,police_station,,,
Police station,15.0530156,76.2096639,police_station,,,
"C2- Race Course Police Station, Coimbatore",11.001692,76.9713177,police_station,,COIMBATORE,
Police Outpost,22.3193065,87.3082055,police_station,,,
Nelamangala Police station,13.0996883,77.3910797,police_station,,,
Nelamangala Rural Police station,13.0958954,77.4036456,police_station,,,
C-3 Saibaba Colony Police Station,11.0266348,76.9515967,police_station,,,
Police Station,12.9363435,77.5615008,police_station,,,
Police Station,14.5149816,75.8062209,police_station,,,
Police Station,9.4890834,76.3238183,police_station,,,
Police Station,15.4296167,75.6328438,police_station,,,
Bagalkot Police station,16.1812514,75.6917984,police_station,,,
Commercial Street Police Station,12.9825702,77.6070982,police_station,,,
Saravanampatti Police Station,11.0747296,77.0027116,police_station,,,
Irritty Police Station,11.9953421,75.6798494,police_station,,,
Ramanathapuram police station,10.9975827,76.997871,police_station,,,
B1 POLICE STATION,10.9924847,76.9591307,police_station,,,
Vijaynagar Traffic Police Station,12.9733449,77.5414869,police_station,,,
Vijayanagara Police Station,12.3368103,76.6016461,police_station,,,
"CPSC, Sub Division Gill",30.9145364,75.8428635,police_station,,,
"Police Station sdar, Ludhiana City",30.9142692,75.8436092,police_station,,,
City Police Station,30.1295214,75.8065836,police_station,,,
Women's Police Station,17.2487201,80.1398871,police_station,,,
Badlapur Police Station.,19.1576004,73.2396403,police_station,,,
Police Post Atam Nagar,30.8892064,75.8501033,police_station,,,
ACP AtamNagar,30.8891192,75.8498351,police_station,,,
City Police Station,30.1264355,75.7993328,police_station,,,
Kadugodi Police Station,12.995384,77.7574684,police_station,,,
Indiranagar Traffic Police Station,12.967409,77.6559012,police_station,,,
Police Station,25.2999805,83.0015478,police_station,,,
Deccan Gymkhana Police Chowki,18.5141406,73.8403808,police_station,,,
Police chowki NIT 3,28.3959429,77.2900781,police_station,,,
Police Station,28.4309808,77.2971327,police_station,,,
Sonarpur Police Station,22.4424481,88.4305142,police_station,,,
Latasil Police Station,26.1899295,91.7519454,police_station,,,
Panchgani,17.9246436,73.7999868,police_station,,,
Police Station,13.0576855,80.2041548,police_station,,,
Kutch District Police Headquarters,23.2430111,69.6664617,police_station,,,
Police Station Agatti,10.8662714,72.1942666,police_station,,,
Kollencode Police Station,8.2937626,77.114347,police_station,,,
Devaraja Police Station,12.314282,76.6567805,police_station,,,
Police Station,12.0975288,76.555826,police_station,,,
Calangute Police Station,15.5429919,73.7808479,police_station,,,
Police Station,11.3630177,77.7476505,police_station,,,
"Police Station, Dharmadam",11.7747051,75.4661058,police_station,,,
Thalassery police station,11.7497197,75.4857798,police_station,,,
Jeoni Mandi Police Station,27.1970981,78.0248862,police_station,,,
kazhakuttom Police Station,8.5699892,76.8717434,police_station,,,
Jat Police Station,17.0502495,75.2085038,police_station,,,
Police Station,10.988383,76.9354528,police_station,,,
Thiruvallam Police Station,8.4410206,76.9596666,police_station,,,
Urwa Police Station,12.9022386,74.8358179,police_station,,,
Police Station,30.2447247,75.843312,police_station,,,
Tisaiyanvillai Police Station,8.3366712,77.8541616,police_station,,,
Police Station,15.5490402,73.7647929,police_station,,,
D.N. Nagar Police Station,19.1225849,72.8299999,police_station,,,
Daalanwala Police Station,30.3250628,78.0540411,police_station,,,
Pimple Saudagar Police Statiom,18.6015562,73.7993609,police_station,,,
Shastri Nagar Police Station,13.0006116,80.2659307,police_station,,,
Haldwani Kotwali,29.2176092,79.5293165,police_station,,,
Hijapuri Police,27.4819529,95.3390824,police_station,,,
Panitola Police,27.4929462,95.2685732,police_station,,,
Police Station,27.6360405,95.80629,police_station,,,
Dumral Bazzar Police Station,22.6914433,72.8643665,police_station,,,
Pandeshwara Police Station,12.8560871,74.8393126,police_station,,,
Kunnamangalam,11.3053711,75.8786307,police_station,,,
Bagayam Police Station,12.8757507,79.1336955,police_station,,,
Kadri Police Station,12.8902826,74.8526744,police_station,,,
Nadiad Main Police Station,22.6942361,72.8585041,police_station,,,
Najafgarh Police Thana,28.6098145,76.9828316,police_station,,,
Police Station,9.2399184,78.7819267,police_station,,,
Karepally Police Station,17.511315,80.2751584,police_station,,,
Palani Town Police Station,10.4528743,77.5155698,police_station,,,
Police Chowki,28.6126106,76.9867433,police_station,,,
Vijayanagar Police Station,12.9707264,77.5377251,police_station,,,
Tirthahalli Police Station,13.6982846,75.2461258,police_station,,,
K.T.J Nagar Police Station,14.4540972,75.9246771,police_station,,,
Rural Police Station,14.4509921,75.9206449,police_station,,,
Chamarajapet Police Station,12.9604765,77.5643202,police_station,,,
Shankarapuram Police Station,12.9538729,77.570101,police_station,,,
Peenya Police Station,13.0360107,77.5211853,police_station,,,
Palasiya Police Station,22.7250681,75.8877551,police_station,,,
Police Station,12.3043547,78.203113,police_station,,,
Police Station,31.685219,76.523605,police_station,,,
Chhajjapur Police Chowki,26.5556172,82.6569518,police_station,,,
Cottenpet Police Station,12.9680925,77.5700945,police_station,,,
Jaffar Pur Police Station,28.5958543,76.9151778,police_station,,,
Police Station,13.9386093,75.5760229,police_station,,,
Tiruppur North,11.1066254,77.3427939,police_station,,,
Women's Police Station,12.9292268,77.5678506,police_station,,,
Thyagaraja Nagar Police Station,12.929436,77.5678479,police_station,,,
BSK 3rd stage Police Station,12.9235553,77.5533335,police_station,,,
Magadi Road Police Station,12.9744861,77.5512501,police_station,,,
Police Station,12.5292856,78.2057273,police_station,,,
"Police Station,Chavakkad",10.5831944,76.0228476,police_station,,,
Police Station,15.935314,77.355997,police_station,,,
Veraval Tower Police station,20.9097351,70.3647844,police_station,,,
Hebri Police Station,13.4587393,74.9898943,police_station,,,
Dhalli Police Station,31.1050234,77.2081413,police_station,,,
Police Station Sadar Mandi,31.7079865,76.9358386,police_station,,,
Thana Sadar,31.1034424,77.1748706,police_station,,,
Davanagere Traffic Police Station,14.460481,75.9310248,police_station,,,
Police Station,14.4692024,75.9187242,police_station,,,
Police Station,29.043789,78.754288,police_station,,,
Krishna Rajendra Market Police Station,12.9649402,77.5761878,police_station,,,
police point,11.2605169,75.9541762,police_station,,,
Police Station,30.3257766,78.0428731,police_station,,,
Police Station Samrala,30.8373959,76.184134,police_station,,,
Police Outpost,13.2156173,80.1694388,police_station,,,
PAP training centre,31.312063,75.61199,police_station,,,
Makarpura Road Police Station,22.2707302,73.2032808,police_station,,,
Konandur Police Station,13.8106744,75.247492,police_station,,,
HVF,13.1291456,80.1073794,police_station,,,
Rural Police Station,12.4296619,75.7254763,police_station,,,
Versova Police Station,19.1241245,72.8303704,police_station,,,
"Police Station, ET North Cusba",9.9888696,76.2826992,police_station,,,
Ganesh Peth Police station,18.5161748,73.8621906,police_station,,,
Railway police station,8.9645513,77.3063031,police_station,,,
"Krishnagiri Taluk office, fire station, Police station",12.5254539,78.2171823,police_station,,,
Police Stations,8.9724199,77.4192932,police_station,,,
Hulimavu Police Station,12.87667,77.6000418,police_station,,,
Police Station,12.2746373,76.6706182,police_station,,,
Additional Deputy Commissioner (ADC) Office (Inner Line Permits),32.2272638,78.0671363,police_station,,,
Harnaut Police Station,25.3735004,85.536577,police_station,,,
Mahanagar Police Station,26.8730854,80.9587271,police_station,,,
Police Station,13.0687012,80.2046669,police_station,,,
Diamond Harbour Police Station,22.1878691,88.189743,police_station,,,
North Police Station,10.7740629,76.6465048,police_station,,,
Police Station Rampura Phul,30.2668409,75.2349469,police_station,,,
Ukhra Out Post,23.6452743,87.2435686,police_station,,,
Madhepura Town Police Station,25.9206215,86.7913192,police_station,,,
Police Commissioner Office,19.1960801,72.9811271,police_station,,,
Vartak Nagar Police Station,19.2131355,72.9627611,police_station,,,
Sakkardara Police Station,21.1294212,79.1140716,police_station,,,
Komarapalayam Police station,11.4413141,77.6931115,police_station,,,
Raghunathpally police Station,22.2280424,84.8157651,police_station,,,
Sangareddy Police Station,17.6251758,78.0826323,police_station,,,
Police Station,12.5564245,75.3930698,police_station,,,
Adirampattinam Police Station,10.3404104,79.3855317,police_station,,,
KK POLICE STATION,19.0990752,73.0051825,police_station,,,
Police Station,16.6990919,73.3945643,police_station,,,
Commissioner's office,11.755369,79.7688583,police_station,,,
Police Station Malviya Nagar,28.5306718,77.2045562,police_station,,,+91-11-2669-1861;+91-11-2669-1862
Chikkapete Police Station,12.9707012,77.5736393,police_station,,,
Police Dept. Head Office,10.9182526,79.8356196,police_station,,,
Laxminagar Police chowky,18.4896021,73.8497008,police_station,,,
J2 Police Station Kedar Jurisdiction,12.0091224,79.4029681,police_station,,,
Vetapalem Police Station,15.7823656,80.3026372,police_station,,,
Bettiah Main Police Station,26.8013017,84.5351937,police_station,,,
Nampally Police Station,17.4000892,78.460378,police_station,,,
Chowk Police Station,25.4372308,81.8330585,police_station,,,
J9 Police Station,12.947613,80.2416251,police_station,,,
"Police Station, Peroorkada",8.5357989,76.9671077,police_station,,,
Madipalkam police stations,12.9559858,80.1853072,police_station,,,
"Mahmoorganj Police Station , Bhelupur,Varanasi.",25.3028749,82.9734357,police_station,,,
Nandini Layout Police Station,13.0124684,77.5368288,police_station,,,
Police Station,19.2282071,72.8582168,police_station,,,
"Police Station, Sreekaryam",8.5422637,76.9134781,police_station,,,
Dona Paula Police Station,15.4569809,73.803576,police_station,,,
Banashankari Police Station,12.9229116,77.5650055,police_station,,,
Hari Nagar Police Station,28.6097133,77.0997911,police_station,,,
Police Station,13.0229741,80.1999165,police_station,,,
Ubhaon Police Station,26.132733,83.8669181,police_station,,,
Hinjawadi Police Chowki,18.5917477,73.7387073,police_station,,,
All Women Police Station,8.0824428,77.5495196,police_station,,,
Police Station,8.0821735,77.5495411,police_station,,,
Police Srirangam,10.8571762,78.6896428,police_station,,,
Taluk Police Station Kumbakonam,10.9555027,79.3655029,police_station,,,
Commissariat de police des femmes,11.9356223,79.8325393,police_station,,,
All Women Police Station,12.6207273,80.1957062,police_station,,,
"Police Station, Vettavalam",12.1098807,79.2447246,police_station,,,
Prasad Nagar Police Station,28.6478735,77.180705,police_station,,,
Manicktala P.S,22.5841465,88.3788957,police_station,,,
Dugawan Police Chowki,26.8458026,80.918437,police_station,,,
Police Chowki,19.0628319,72.8292193,police_station,,,
Humayun Nagar Police Station,17.39555,78.4422291,police_station,,,
Chaderghat Police Station,17.3779381,78.4917299,police_station,Telangana,Hyderabad,91 40 27854782
Yerawada Police Station,18.5527989,73.8957965,police_station,,,
Vishnunagar Police Station,19.2192494,73.0867512,police_station,,,
Police Booth,12.8975662,80.1823209,police_station,,,
"Police Station, Sector 39",30.7451963,76.7264111,police_station,,,
police station,10.7035066,78.5504006,police_station,,,
Police Assistance Booth Mugalivakam,13.0207162,80.1663239,police_station,,,
"Sarkarwada Police Station, Gangapur Road",20.0056431,73.779722,police_station,,,
Shankaranarayana Police Station,13.6045426,74.8625164,police_station,,,
Muchipara Police Station,22.566664,88.3653411,police_station,,,
"Police Station,",17.1911295,80.3631657,police_station,,,
Yadgir Urban Police Station,16.7715926,77.1378867,police_station,,,
Uppal Police Station,17.4022035,78.5602268,police_station,Telangana,,91 40 2785 3987; 91 40 2720 4224
Balagandharva Police Station,18.5222358,73.8478417,police_station,,,
Sant Kabir Police Station,18.5148758,73.8688574,police_station,,,
Superintendent of Police,17.2529194,80.1373831,police_station,,,
B2 Police Station,10.8228204,78.6827289,police_station,,,
"Police Station, Thakur Village",19.2059514,72.8729038,police_station,,,
Dindoshi Police station,19.1789489,72.8577333,police_station,,,
Dharwad Town Police Station,15.4594267,75.0116253,police_station,,,
Hanagalla Police Station,14.7715706,75.1252731,police_station,,,
Bashistha Police Station,26.1126488,91.7948727,police_station,,,
Gokul Road Police Station,15.3508749,75.114308,police_station,,,
police station,17.0746367,80.9904312,police_station,,,
police quarters,17.0748011,80.9907364,police_station,,,
police station,16.2924294,80.453525,police_station,,,
Kodigehalli Police Station,13.0621975,77.5741087,police_station,,,
Trafic Police Station,12.7279317,77.8270513,police_station,,,
Hosur Town Police Station,12.7267546,77.827283,police_station,,,
"Office Of The Superintendent Of Police, Nadia",23.4094123,88.4817637,police_station,,,
Police Station,14.4465603,79.9819165,police_station,,,
Rural Police Station,12.3074635,76.29412,police_station,,,
City Police Station,12.3053128,76.2904091,police_station,,,
Rural Police Station,16.7628915,77.1326693,police_station,,,
Police Station,8.1783299,77.4316465,police_station,,,
Khandagiri Police Station,20.2595201,85.7898677,police_station,,,
Police,12.6214889,80.1942737,police_station,,,
Police,20.5800535,75.7249662,police_station,,,
Chandanpur Police Station,19.8897971,85.8174491,police_station,,,
Police Station Nehru Park Boulevard,34.0892308,74.8459579,police_station,,,
Police Assistance,32.2456254,77.1900016,police_station,,,
Police Station,24.79231,93.0028667,police_station,,,
Sikriganj Police Station,26.5030254,83.2004017,police_station,,,
Dwarka Ploce Station,28.5649687,77.0584523,police_station,,,
Police Station,30.4853182,75.1025641,police_station,,,
Perugate Police Chowki,18.5113926,73.8487755,police_station,,,
Police Station,17.3686441,78.5365773,police_station,,,
Police Station,14.2202518,74.7989175,police_station,,,
"Govt. Railway Police Station, Bhubaneswar",20.2662583,85.8432199,police_station,,,
"Govt. Railway Police Station, Bhubaneswar",20.2661224,85.8439279,police_station,,,
Kumardungi Police Station.,22.2240579,85.8749721,police_station,,,
Chutia Police Station.,23.3536122,85.3378341,police_station,,,
J&K Police Check-Post Mahe,33.2688947,78.4692163,police_station,,,
J&K Police Check-post.,33.8300472,77.8144636,police_station,,,
J&K Police Check-Post@ South Pulu,34.2484166,77.6200894,police_station,,,
J&K Police-Check-Post @ North Pullu.,34.3295809,77.6446863,police_station,,,
Hat Gamaria Police Station,22.2761304,85.7389419,police_station,,,
Bavdhan Police Chowki,18.5224956,73.7795837,police_station,,,
"Police Station, Tirur",10.9162808,75.922147,police_station,,,
Khunti Police Station,23.0765241,85.2784153,police_station,,,
Murhu Police Station,22.961593,85.2796156,police_station,,,
LB Nagar Police Station,17.3467781,78.5515732,police_station,Telangana,Ranga Reddy,91 40 2785 3997
"Deputy superintendent of Police, Hampi",15.3092804,76.4759711,police_station,,,
Saroornagar Police Station,17.3683187,78.5276599,police_station,,,
Police Station,22.0065898,82.5783767,police_station,,,
"Rural Police Station,Thyamagondulu",13.2158301,77.300644,police_station,,,
Jaihindpuram Police Station,9.9066088,78.1119041,police_station,,,
Police Booth,28.6702484,77.1336893,police_station,,,
S.P. Bunglow,14.4674176,78.8264055,police_station,,,
City Police HQ,9.5565491,77.9453096,police_station,,,
Punjabi Bagh Police Station,28.6741463,77.1322843,police_station,,,
Rajendra Nagar Police Station,28.634698,77.1826937,police_station,,,
Police Residential Complex,28.6349617,77.1837505,police_station,,,
Badhamkar Mark Police Station,18.9608206,72.8170666,police_station,,,
Baguiati Police Station,22.6203718,88.4254168,police_station,,,
Police Station,33.2029018,78.6465701,police_station,,,
Badavane Police Station,14.4648959,75.9199787,police_station,,,
Police Station,17.1800609,77.2849887,police_station,,,
Town Thana,19.3137733,84.7826863,police_station,,,
Tiljala Traffic Guard,22.5425798,88.3989293,police_station,,,
Parama - Police Station,22.5418694,88.3988261,police_station,,,
Sector - V Police Station,22.5767793,88.4298724,police_station,,,
New Ashok Nagar Police Station,28.5983359,77.3112386,police_station,,,
Regional Transport Office,16.753434,77.1259524,police_station,,,
Bhowanipore Police Station,22.5266453,88.3459941,police_station,,,
Surathkal Police Station,12.984242,74.8023199,police_station,,,
Tirumalashettyhalli Police Station,12.987855,77.782224,police_station,,,
City Police Station,13.6370846,74.6889136,police_station,,,
Hennur Police Station,13.0237703,77.6457711,police_station,,,
Kakdwip Police Station,21.8736519,88.186992,police_station,,,
Circle Police Inspector Office,16.7464612,77.1316305,police_station,,,
Check-post Sarchu,32.9354624,77.6164483,police_station,,,
Hutti Police Station,16.1946428,76.6555951,police_station,,,
Mahsana District Jail,23.6090155,72.3843978,police_station,,,
Alankar Police Chowki,18.4984329,73.8262153,police_station,,,
Police Station,32.2067616,76.3275935,police_station,,,
Senadatta Police Chowki,18.5052065,73.8446033,police_station,,,
Baba Haridas Nagar Police Station,28.6289362,76.9666822,police_station,,,
"Town Police Station, Gurumitkal",16.8653035,77.3892976,police_station,,,
Koothanallur Police Station,10.7161884,79.5172308,police_station,,,
Narayan Peth Police Chowki,18.5162004,73.8478649,police_station,,,
Krishnarajasagara Police Station,12.4069086,76.5728063,police_station,,,
Gokuldham Police Station,19.1755909,72.8676526,police_station,,,
Police Station,14.1641556,77.8121045,police_station,,,
Vijayapura Police Station,13.2944766,77.8026703,police_station,,,
SSP and FRO,34.1608812,77.5886652,police_station,,,
Malur Police Station,13.0026086,77.9385563,police_station,,,
Sampangi Rama Nagar Police Station,12.9632542,77.5920638,police_station,,,
Women's Police Station,12.2523481,79.4163223,police_station,,,
Police Station,12.2517837,79.4181292,police_station,,,
Reserve Police Camp,8.8818543,76.5968492,police_station,,,
SP Office,8.8805263,76.597389,police_station,,,
J6 Police Station,12.9874599,80.2559315,police_station,,,
Police Outpost Cavelossim,15.1772387,73.9471797,police_station,,,
Chowk Bazar Police Station (Furja),21.1983247,72.8194544,police_station,,,
Veeyapuram Police Station,9.3307394,76.4732625,police_station,,,
Piplod Police Chowki,21.1648314,72.7803298,police_station,,,
Police Choki Chanapora,34.0343154,74.8092932,police_station,,,
Police Station Kamla Nagar,23.2150398,77.3955631,police_station,,,
Police Station,30.8127537,75.274882,police_station,,,
City Police Station,30.8225247,75.1737033,police_station,,,
City Police Station,30.8099688,75.4766319,police_station,,,
Subroto Park Police Station,28.5942138,77.1651188,police_station,,,
Mailam Police Station,12.1281858,79.6195761,police_station,,,
Police Chowk,19.0738897,72.8294847,police_station,,,
Agartala West Police Station,23.8296782,91.2782665,police_station,,,
Aga√ßaim Police Station,15.4185348,73.9033691,police_station,,,
Udhava police station,20.0919375,73.0051913,police_station,,,
Police Madat Kendra,18.7433889,73.4833228,police_station,,,
Khadki Police Station,18.5571921,73.8454253,police_station,,Pune,
Police Station,28.6499571,77.1219621,police_station,,,
vanasthalipuram police station,17.3320109,78.5690104,police_station,,,
Police Station,17.2183599,80.3009055,police_station,,,
APSP- 2 Betallion,15.8263072,78.0219723,police_station,,,
Women Protecting Cell,17.9949169,79.5897464,police_station,,,
Madhapur Police Station,17.4393976,78.3958896,police_station,,,
Chaliyam Coastal Police Station,11.1617175,75.8073264,police_station,,,
Railway Chief Police Inspector,8.8856283,76.5929296,police_station,,,
Agartala West Women Police Station,23.8291741,91.278355,police_station,,,
"Police Station, Thirurangadi",11.0421918,75.9128448,police_station,,,
Police Station,28.6499319,77.2432349,police_station,,,
Police Station Feroke,11.1828848,75.837412,police_station,,,
Police Station Gandhi Circle,26.8840927,75.8129569,police_station,,,
Police Station,16.577461,82.0029545,police_station,,,
Amalapuram II Town Police Station,16.578069,82.0003142,police_station,,,
Kamalapura Police Station,15.30589,76.4737176,police_station,,,
Adoor SP Office,9.1586025,76.7306379,police_station,,,
Police chouki,20.1242827,72.9172372,police_station,,,
New Market Police Station,22.5627183,88.3541137,police_station,,,+913322177397
Konark Police Station,19.8888365,86.0921955,police_station,,Puri,
police station shaheed Gunj,34.0753929,74.8038859,police_station,,,
Humnabad Police Station,17.7720906,77.1235376,police_station,,,
Kalta Police Outpost,21.9669497,85.2185857,police_station,,,
II town police station,13.2111193,79.0938583,police_station,,,
Irinjalakuda Sub Jail,10.3472965,76.2171631,police_station,,,
Dharampur Police Station,30.8967748,77.0152592,police_station,,,
Sadar Solan Police Station,31.1025178,77.1748839,police_station,,,
"Sadar Police Station, Bilaspur",31.3477787,76.7620377,police_station,,,
"Ghumarwin Police Station, Bilaspur",31.4427631,76.7070334,police_station,,,
Dehra Police Station,31.8802695,76.2219271,police_station,,,
Nurpur Police Station,32.3018976,75.8804514,police_station,,,
Kakkur Police Station,11.3765153,75.8156431,police_station,,,
Bharari Police Station,31.5322293,76.6625431,police_station,,,
Nadun Police Station,31.7755337,76.3548237,police_station,,,
Jubbal Police Station,31.1081523,77.6611573,police_station,,,
Kasba Peth Police Chowki,18.5204757,73.8560378,police_station,,,
Paud Phata Police Chowki,18.5064508,73.8245986,police_station,,,
Vidyanagar Police Station,15.3646047,75.124614,police_station,,,
Police Aid Post,9.9866869,76.5778722,police_station,,,
City Police Station,25.3428267,74.6391854,police_station,,,
Lambagaon Police Station,31.8989042,76.5594777,police_station,,,
Sadar Solan Police Station,21.1617741,79.0714018,police_station,,,
District Armed Reserve Force,12.9443718,78.2492379,police_station,,,
Police station Aut,31.7436305,77.2083245,police_station,,,
Police Station Gagret,31.6787258,76.1186765,police_station,,,
Police Station Garget,31.6532543,76.0724821,police_station,,,
Office of Superintendent of Police- Nahan,30.5571761,77.297663,police_station,,,
Police Station Jawalamukhi,31.8689019,76.3207312,police_station,,,
Police Station Joginder Nagar,31.9895642,76.7921963,police_station,,,
Police Station Paonta Sahib,30.4358234,77.6205568,police_station,,,
Police Station New Shimla,31.0829673,77.1726206,police_station,,,
Police Station Theog,31.1237575,77.3556366,police_station,,,
Police Station  Bakloh,32.4666342,75.9246201,police_station,,,
Police Station Dalhousie,32.5366047,75.976231,police_station,,,
Police Station Bharmaur,32.4466109,76.5289393,police_station,,,
Police Station Haripur,32.0056237,76.1591737,police_station,,,
Police Station Kotla,32.2367645,76.0482725,police_station,,,
Police Station Nagrota Bagwan,32.1040995,76.3795282,police_station,,,
Police Station Banjar,31.6381398,77.3446836,police_station,,,
Police Station Rohru,31.2022739,77.7522267,police_station,,,
Police Station Kaza,32.2249779,78.0675231,police_station,,,
Police Station Nalagarh,31.0416445,76.7168012,police_station,,,
Police Station Dharamshala,32.2113893,76.3213856,police_station,,,
SP - Superintendent of Police Office,25.3509519,74.6316467,police_station,,,
police station,23.3660152,85.324564,police_station,,,
Renukoot Police Station,24.2160441,83.0355274,police_station,,,
Tilak Nagar Police Station,19.0652856,72.8959976,police_station,,,
VB Nagar Police Station,19.0717172,72.8842275,police_station,,,
Rural Police Station,16.6948312,76.8453847,police_station,,,
balugaon police station,19.7613779,85.2139182,police_station,,,
Swargate Police Station,18.5007921,73.8591594,police_station,,,
Police chowk,19.4559349,75.5774652,police_station,,,
"Mohan Nagar Police Station, Durg",21.1968534,81.2877296,police_station,,,
Chamakhandi Police Station,19.3406031,84.9341383,police_station,,,
Arsikere Rural Police Station,13.3125702,76.2568665,police_station,,,
Police Commissioner's Office,18.9462953,72.833307,police_station,,,
Dhundaleadi Police Stestion,20.0499492,72.918809,police_station,,,
Chitlapakam Police Station,12.9372924,80.1379265,police_station,,,
Police Station,20.7860667,85.5490916,police_station,,,
Police Station,20.9325581,85.5415127,police_station,,,
"Police Station, Tumusingha",20.8099593,85.4847572,police_station,,,
Police Control Room Nagpur City,21.1545937,79.0725174,police_station,,,
II Town Central Crime Station,16.9916278,81.7772132,police_station,,,
II Town Law And Order Police Station,16.9917549,81.7771515,police_station,,,
I Town Law And Order Police Station,17.0009146,81.77106,police_station,,,0883-2471033
I Town Central Crime Station,17.0009288,81.771046,police_station,,,
City Traffic Police Station & Circle Office,17.0057103,81.7788238,police_station,,,"0883-2442953, 2468050"
III Town Central Crime Station,17.0057577,81.7785657,police_station,,,0883-2468050
Prakasham Nagar Police Station,17.0070088,81.7879635,police_station,,,
Mahila Police Station,17.0090634,81.7696775,police_station,,,
III Town Law And Order Police Station,17.0091544,81.7697628,police_station,,,
Rakabganj Police Station,27.1701129,78.0120081,police_station,,,
police chauki,27.1809568,77.9971241,police_station,,,
police choki,27.1702945,77.9840132,police_station,,,
Police Res. Colony,20.6515347,85.5940985,police_station,,,
Jail,20.6486935,85.5927359,police_station,,,
police thana,27.1764358,77.7608517,police_station,,,
Police Chowki,27.1860952,78.0060909,police_station,,,
Police Chowki,27.1888197,77.9621058,police_station,,,
police thana,26.942729,77.8192744,police_station,,,
S-10 Police Station (Pallikaranai),12.9173825,80.1950805,police_station,,,
Alambagh Police Station,26.8262917,80.9095211,police_station,,,
Jharigaon police Station,19.7140931,82.3658805,police_station,,,
Alipiri Police Station,13.6483433,79.4252717,police_station,,,
Police Choki,27.1868116,78.0149181,police_station,,,
Ernakulam Rural DSP office,10.1000756,76.3574874,police_station,,,
Gittikhadan Police Station,21.173675,79.0609179,police_station,,,"+91-712-2580127, +91-712-2566757"
Ambazari Police Station,21.1485857,79.0553787,police_station,,,0712 256 1300
Police Station-Ajni,21.1233991,79.0854254,police_station,,,0712 264 6643
Perumalpuram C3 Police station,8.7040942,77.7319902,police_station,,,
Sudha Cross Police Station,15.1514669,76.900829,police_station,,,
Bellary Rural Police Station,15.1445623,76.9253149,police_station,,,
Police Station,15.2658167,76.3497236,police_station,,,
Police Wireless Headquarters,23.2268792,77.38671,police_station,,,
Police Station,19.2294953,72.8559481,police_station,,,
Chetpet,13.0706907,80.2421194,police_station,,,
Police Station,11.3976327,79.6911315,police_station,,,
RTO Office Mananthavady,11.749318,76.0174875,police_station,,,+91-4935-227972
Police Station,17.3349988,78.46836,police_station,,,
POLICE STATION,19.0537,72.9357,police_station,,,
trombay police station,19.0361453,72.9499458,police_station,,,
Tembhipada Police Chowki,19.1548902,72.9291114,police_station,,,
chembur police station,19.0639495,72.9008254,police_station,,,
Maharashtra Nagar Police Station,19.0502474,72.9378622,police_station,,,
Govandi Police station,19.0595211,72.9116651,police_station,,,
Lallubhai Police Station,19.0528478,72.9270997,police_station,,,
gaikwaad nagar police station,19.0603518,72.9104397,police_station,,,
Barharia Police Station,26.3165063,84.4561991,police_station,,,
javahar police station,19.8647078,75.3479046,police_station,,,
Ellisbridge Police Station,23.022886,72.5716416,police_station,,,
k.c.police s,19.8751499,75.3241758,police_station,,,
police colony,19.8749294,75.3237058,police_station,,,
POLICE GROUND,20.2649205,75.1327225,police_station,,,
Police Station,20.0340552,75.0336552,police_station,,,
Lahori Gate Police Station,28.6558358,77.2190161,police_station,,,
Sahibabad Police Station,28.678628,77.3712722,police_station,,,
Kotwali Police Station,28.6585978,77.2310844,police_station,,,
Jama Masjid Police Station,28.6524641,77.2337052,police_station,,,
Sardarnagar Police Station,23.0804289,72.620522,police_station,,,+917922864345
kalupur Police Station,23.0280667,72.5938493,police_station,Gujarat,,+917922167530
Rajendra Nagar Police Chowki,28.6778133,77.3578938,police_station,,,
Cycle Market Police Post,28.6559206,77.2347384,police_station,,,
Sonegao Police Station,21.0905381,79.0643585,police_station,,,"+91-712-2284110, +91-712-2566765"
Nandanvan Police Station,21.1304545,79.1221017,police_station,,,
Lakdapul Police Station,21.147774,79.1128324,police_station,,,
Ganeshpeth Police Station,21.1427057,79.1007956,police_station,,,
Police Station Dhantoli,21.1373887,79.0853548,police_station,,,
Police Station,21.144064,79.0835593,police_station,,,
Sitabuldi Police Station,21.1442992,79.0803378,police_station,,,
Golchha Marg Police Chowky,21.1632235,79.0766871,police_station,,,
Police Station Pachpaoli,21.164244,79.1027926,police_station,,,
Jaripatka Police Station,21.1886888,79.0918769,police_station,,,+91-712-2640404
Wadi Police Station,21.1473628,78.9914947,police_station,,,"+91-7104-220928, +91-7104-2566765"
RanaPratapnagar Police Station,21.1155372,79.0398337,police_station,,,"91-712-2222688, 2566826"
MIDC Police Station,21.1247647,79.011034,police_station,,,"+91-7104-237885, +91-7104-237935"
Yashodhara Nagar Police Station,21.1813328,79.1255862,police_station,,,"+91-712-2633575, +91-712-2633574"
Kalamana Police Station,21.1627994,79.1455904,police_station,,,"+91-712-2790021, +91-712-2790022"
Hudkeshwar Police Station,21.105796,79.1171854,police_station,,,"+91-712-2702306, +91-712-2702307"
WAGLE POLICE STATION,19.2031874,72.9550994,police_station,,,
Police Shelter,8.9560213,77.0703185,police_station,,,
City Police Station,12.9408782,75.7823016,police_station,,,
Police Station,20.9103757,70.3785534,police_station,,,
Police Station,20.739476,71.0059757,police_station,,,
Police Station Diu,20.7176346,70.9907716,police_station,,,
Police Station,23.2467343,69.6661334,police_station,,,
Police Station,23.2542578,69.6703411,police_station,,,
Manipal Police Station,13.3491906,74.7859734,police_station,,,
Karanj Police Station,23.0245097,72.5820394,police_station,,,
Police Station,27.0436104,88.2649887,police_station,,,
Jorabagan Police Station,22.5931156,88.356043,police_station,,,
Balesar Police Station,26.3971193,72.4901825,police_station,,,
Samarth Police Station,18.5203179,73.8696893,police_station,,,
Shaniwar Peth Police Chowki,18.5200094,73.8500242,police_station,,,
Ashoknagar Police Station,19.9893763,73.7138061,police_station,,,
Behala Thana,22.5035284,88.3190032,police_station,,,
Extension Police Station,13.0069744,76.1136678,police_station,,,
Hukkeri Police Station,16.2375777,74.6050442,police_station,,,
Indiranagar Traffic Police Station,12.978243,77.6404269,police_station,,,
Prabhat Police Chowki,18.5145218,73.8333062,police_station,,,
Police Station,28.5246843,77.2543284,police_station,,,
Dcp Office,17.7199346,79.1567548,police_station,,,
Ulavapadu Railway Police Station,15.1608912,80.0125345,police_station,,,
Rajesultanpur KOTWALI,26.3063088,83.0790391,police_station,,,100
Panaji Police Station,15.4997318,73.8243971,police_station,,,
Police Station,11.9254085,79.8338691,police_station,,,
Police Station Ganda Kheri,30.434764,76.5439521,police_station,,,
Bizpore Police Station,22.9414286,88.4454561,police_station,,,
Bachhawara,25.5811092,85.8933732,police_station,,,
Karnataka State Reserve Police,12.9691307,77.6168652,police_station,,,
Pradhikaran Police Chowki,18.6621064,73.774177,police_station,,,
Tukaram Gate Police Station,17.4451064,78.5174812,police_station,,,
Odiensalai Police Station,11.9301028,79.8240574,police_station,,,
"Police Station, Shirur Anatpal",18.341856,76.8416061,police_station,,,
Police Nideshalaya,30.3301055,78.0503148,police_station,,,
Dhanvantari Police Station,11.9485822,79.796655,police_station,,,
Nehru Nagar Kurla E Police Chowky,19.0650661,72.8808749,police_station,,,
Chityala Police Station,17.2322111,79.1270835,police_station,,,
Jonai Police Station,27.822811,95.2297032,police_station,,,
Khardev Nagar Police Station,19.0557429,72.9088297,police_station,,,
Tezpur Police Station,26.6230515,92.7969708,police_station,,,
Police station of ambad,19.6164554,75.7879529,police_station,,,
Rathinapuri Police Station,11.0250344,76.9715748,police_station,,,
Police Aid Post,9.5953316,76.5281479,police_station,,,
Customs,9.9691797,76.2512745,police_station,,,
Poloce Station Miller Ganj,30.9001803,75.8584282,police_station,,,100
Thirukovilur Police Station,11.9664139,79.2020996,police_station,,,
Ponmudi Wireless Repeater Station,8.7649869,77.1096998,police_station,,,
Police Station,30.1405138,74.1961939,police_station,,,
Police Station,30.1492937,74.2007444,police_station,,,
Police Station,19.3531929,84.9865109,police_station,,,
"Police Station , Nani Daman",20.4170634,72.8333759,police_station,,,
Vikhroli Police Station,19.1187189,72.9373252,police_station,,,
Kaliachak Police Station,24.8629428,88.0174502,police_station,,,
Aimangala Police Station,14.0945949,76.5343773,police_station,,,
"Police Station ,Cherpu",10.4405044,76.2107543,police_station,,,
Police Station,28.4396445,74.490441,police_station,,,
Police station,22.4674468,70.0665251,police_station,,,
Vidyaranyapuram Police Station,12.263648,76.6447279,police_station,,,
T.P. Nagar Thana,28.9714734,77.6823309,police_station,,,
Jorhat Main Police Station,26.7549643,94.2113717,police_station,,,
Vinobanagara Police Station,13.9506702,75.5599037,police_station,,,
Jorhat Fire Station,26.7548007,94.2114172,police_station,,,
DY SP OFFICE,19.6193338,75.7930411,police_station,,,
Traffic Police Karnal,29.6765804,77.0051198,police_station,,,
Police Station,10.894739,76.3883861,police_station,,,
Peerbahor,25.619931,85.1554298,police_station,,,
Police Aid Post,10.1196694,76.3427074,police_station,,,
Boiler Plant Police Station,10.7710082,78.795665,police_station,,,
Police Station,23.2166118,77.4277867,police_station,,,
Police Station,23.231424,77.4544299,police_station,,,
Police Station,23.2350194,77.4290026,police_station,,,
Police Station,23.2445563,77.3921488,police_station,,,
Police Station,23.2610879,77.429701,police_station,,,
"Police Station,Kuttiady",11.6520444,75.7534955,police_station,,,
Jugsalai Police Station,22.7826968,86.1847328,police_station,,,
Police Station,10.8161847,78.6942025,police_station,,,
SP office,13.3121349,75.774351,police_station,,,
Police station,14.621251,74.8253264,police_station,,,
highway police k-24 n paravur,10.1483663,76.2310992,police_station,,,
Office Of Circle Inspector Of Police,10.1481672,76.2310425,police_station,,,
Chelakara Police Station,10.6947064,76.3351887,police_station,,,
"Police Station, Malappuram",11.0461159,76.0758304,police_station,,,
Police Station,21.6425951,69.6064493,police_station,,,
THANA NAI KI MANDI,27.1807733,78.0020282,police_station,,,
Vidhana Soudha Police Station,12.9773726,77.5884362,police_station,,,
"Police Station, Vellayil",11.2875842,75.7622707,police_station,,,
Ponda Police Station,15.3993608,74.0042877,police_station,,,
SOLA POLICE STATION,23.0869563,72.5290719,police_station,,,
Irilbung police station,24.7551637,93.9801317,police_station,,,
new agra police station,27.2112779,78.0051948,police_station,,,
Traffic Police Cabin,12.9568555,77.7011085,police_station,,,
"Chombala Police Station , Kunjippalli",11.6784684,75.5523936,police_station,,,+91-496 250 4600
vadasserikkara Police Station,9.3404422,76.8295759,police_station,,,
Police Control Room,9.4124443,77.0693251,police_station,,,
Police station,9.4197098,76.9401107,police_station,,,
"Police Station, Erumeli",9.4781217,76.8455635,police_station,,,
"Police Station,Vechoochira",9.4252371,76.8503814,police_station,,,
Police Station,30.1222342,78.315233,police_station,,,
Police Signal Control,10.0616167,76.2883836,police_station,,,
Police Aid Post,10.0246127,76.3077234,police_station,,,
Police Camp,9.5820664,76.9712525,police_station,,,
"Police station, Kumily",9.6094669,77.1703093,police_station,,,
Police Station,30.1256315,78.3531291,police_station,,,
Police Station,23.3318575,86.3659142,police_station,,,
"Police Station, Pandikkad",11.0960609,76.2229078,police_station,,,
"Police Station,Kunnamkulam",10.6495067,76.0706512,police_station,,,
Jayalakshamipuram Police Station,12.3235726,76.6128737,police_station,,,
Thalassery traffic Police Station,11.747819,75.4886629,police_station,,,
Police Station,30.1377415,78.3890139,police_station,,,
Police Station,30.1283204,78.2944833,police_station,,,
Police checkpost,26.8745706,84.7817225,police_station,,,
Vigilance & Anti Corruption,8.5119183,76.9527059,police_station,,,
Police Check-Post Tso Moriri,32.9720724,78.2653159,police_station,,,
Police Check point,34.0396858,78.1638714,police_station,,,
Rangirkhari Police Outpost,24.8056687,92.800414,police_station,,,
Ghungoor Police Outpost,24.7790861,92.7939251,police_station,,,
Malugram Police Outpost,24.8397832,92.8074628,police_station,,,
Police Chowki,26.8482599,80.9243626,police_station,,,
Police Station,24.6955269,84.9803383,police_station,,,
Kerala Railway Police Station,9.9682328,76.2912524,police_station,,,
PoliceControl Office,9.4892801,76.3229581,police_station,,,
District Cheif of Police,9.49413,76.322441,police_station,,,
"Traffic Police Station , Alappuzha",9.4918282,76.3313125,police_station,,,
Parnasree Police Station,22.5088819,88.3068201,police_station,,,
Police Station,11.9401952,79.4865046,police_station,,,
Police Station,11.9440945,79.4958028,police_station,,,
Police Station Kanhan,21.2255075,79.2338855,police_station,,,
Police Station,24.6963724,84.9922129,police_station,,,
Police Station,12.2998992,76.6788982,police_station,,,
Police Station Wardha,20.7364541,78.5993047,police_station,,,
Police Headquarter Wardha,20.745134,78.6079418,police_station,,,
Police Station Sawangi (M),20.7144985,78.5743314,police_station,,,
police station,28.5820097,77.195299,police_station,,,
"Police Station, Kalpakanchery",10.9398687,75.9762667,police_station,,,
Baghchung Police station,26.7157686,94.2127683,police_station,,,
J J R Nagar Police station,12.9643591,77.5551587,police_station,,,
Forrest Checkpost,12.1601127,92.7542805,police_station,,,
Mala Police Station,10.2398306,76.266745,police_station,,,
"Police Station,Cheruthruthy",10.74773,76.2748146,police_station,,,
Police Station Murlipura,26.970402,75.7647832,police_station,,,
Matigara Police Station,26.7203667,88.3834567,police_station,,,
Police Station,27.0418153,88.2651114,police_station,,,
Police Station,26.7322603,88.4076388,police_station,,,
Police Station,27.044274,88.2665932,police_station,,,
Police Station,27.0457352,88.2670482,police_station,,,
Police Station,27.0560918,88.2548435,police_station,,,
Police Station,27.0356838,88.2623305,police_station,,,
para thana,26.8240226,80.8740677,police_station,,,
Police Station,17.3923657,78.4689352,police_station,,,
Police Station,27.3569512,96.013021,police_station,,,
Police Station,10.8523494,77.8485857,police_station,,,
Avenue Road Police Chowky,12.9680176,77.5787039,police_station,,,
Suvidha Centre Sunam Sangrur,30.1260025,75.7993503,police_station,,,
Police Chowki,28.8638951,77.2854276,police_station,,,
Verna Police Station,15.35102,73.9323,police_station,,,
Quepem Police Station,15.217839,74.06474,police_station,,,
Police Station,15.2645217,74.0443727,police_station,,,
Orlim Police Station,15.216706,73.95002,police_station,,,
Police Headquaters,22.4782767,70.0505385,police_station,,,
Judicial Lock-up,15.281369,73.95627,police_station,,,
Sada Police Station,15.399035,73.79416,police_station,,,
Bada Bazar  Chauki,25.2449262,79.131674,police_station,,,
RTO Office Bicholim,15.589898,73.946045,police_station,,,
Ribandar Police Station,15.502142,73.872305,police_station,,,
Betim Police Station,15.5064057,73.8256296,police_station,,,
Shiroda Police Station,15.323545,74.025853,police_station,,,
Kalol police station,23.2321535,72.5039766,police_station,,,
BSF,23.4996701,72.3802364,police_station,,,
"Janamythri Police Station, Kadavantra",9.9701748,76.2970222,police_station,,,
Valpoi Police Station,15.531692,74.138836,police_station,,,
police station,23.6033095,72.3925592,police_station,,,
Pernem Police Station,15.716815,73.796788,police_station,,,
police parade Ground,23.6105725,72.3936483,police_station,,,
Police head quarters ,23.6104715,72.3933116,police_station,,,
Shahupuri Police Station,16.7034691,74.2392729,police_station,,,
Salem Town Police Station,11.6539405,78.1604851,police_station,,,
Police Station,30.1372382,74.0510717,police_station,,,
Mehsana city trafic police,23.6017456,72.3900917,police_station,,,
Mahankali Police Station,17.4360262,78.4909597,police_station,,,
Alagapuram Police station,11.6769953,78.1422615,police_station,,,
Sarovar Police station,23.6058092,72.3962892,police_station,,,
Radhanpur circle police station,23.6056242,72.3816721,police_station,,,
R6 KUMARAN NAGAR POLICE STATION ,13.0283677,80.2163105,police_station,,,044 2345 2629
Police Parade Ground,16.8434645,74.6505805,police_station,,,
Police Station Vazhakkad,11.2441695,75.9573277,police_station,,,
Denkanikottai Police Station,12.5208971,77.7903372,police_station,,,
Police Station,20.6115398,79.8650649,police_station,,,
Guruwar Peth Polic Chowki,16.8212651,74.6485946,police_station,,,
MIDC Police Station,16.8732215,74.6314201,police_station,,,
kuvadva road police staion,22.3141856,70.8353128,police_station,,,
Police Head Quarter,17.6873719,73.9987125,police_station,,,
SADAR POLICE STATION,30.336571,76.8429343,police_station,,,
District Superintendent Police Office,19.1069523,74.7464551,police_station,,,
Police Station Headon,30.8244808,76.2687734,police_station,,,
Mahakali ward police chauki,19.939777,79.3081092,police_station,,,
Ramnagar police station,19.9656135,79.2999234,police_station,,,
CITY POLICE STATION,19.9462838,79.2963481,police_station,,,
Police station,30.9036687,75.901945,police_station,,,
Tisk Police Station,15.4237,74.07993,police_station,,,
RPF Aid Post,8.4857161,76.9504191,police_station,,,
Akluj Police Station,17.8914381,75.0184667,police_station,,,
Police Station Bilaspur,28.2882559,76.8586133,police_station,,,
Police Help desk,31.9613255,77.1111738,police_station,,,
beniapukur police station,22.547021,88.3680459,police_station,,,03322844770
Tejpartap's House,30.7479392,76.6296219,police_station,,,
Vatva police,22.9718545,72.6275,police_station,,,
Upnagar Police Station,19.9674127,73.822852,police_station,,,
Nehru Nagar Police Station,19.9685224,73.8253308,police_station,,,
Shivajinagar Police Chowki,18.3874827,76.5630385,police_station,,,
Police Station,34.3304774,75.5713127,police_station,,,
Police Station Palsora,30.7394399,76.7162063,police_station,,,
Police Petrol Centre,30.7517278,76.6359683,police_station,,,
Begum Peth Police Station,17.6723162,75.9088531,police_station,,,
Budhwar Peth Police Station,17.6822379,75.9000406,police_station,,,
Sakhar Peth Police Station,17.6758686,75.9129958,police_station,,,
Police Station,14.2818773,74.4508345,police_station,,,
lalauli police station,25.8099463,80.5406866,police_station,,,
Shastri Nagar Police Chowki,19.9662229,79.3118763,police_station,,,
chek post,19.9538871,79.1001849,police_station,,,
tindwari police station,25.6168636,80.5247938,police_station,,,
yamuna bridge,25.7150218,80.6068569,police_station,,,
Kedar Nagar Police station,26.5399454,82.546576,police_station,,,
Police station Ambala,30.3805996,76.7906909,police_station,,,
Punjab Police post,30.4090505,76.7267446,police_station,,,
Police Post,30.5607986,76.7203908,police_station,,,
Chheda Nagar Police Station,19.0672141,72.9031566,police_station,,,+912225259663
Burud Galli Police Chowki,16.8630064,74.5643682,police_station,,,
Singhgarh Police Chauki,18.4637816,73.8154722,police_station,,,
Market Police Station,17.670196,75.9067369,police_station,,,
HP police checkpoint,32.9057134,77.5822944,police_station,,,
Police Station,17.6964874,73.9882768,police_station,,,
Modi Police Station,17.6590397,75.9005536,police_station,,,
abids police station,17.3889804,78.4761391,police_station,,,
Narayanaguda police station,17.3978573,78.4898195,police_station,,,
Khammam district jail,17.2866477,80.143858,police_station,,,
3 Town police station,17.2440178,80.1358919,police_station,,,
tarbahar police station,22.0703111,82.1604238,police_station,,,
MAHILA THANA,22.0809708,82.1496504,police_station,,,
Jagadevpur Police Station,17.7634077,78.8114319,police_station,,,
Police Station,10.7676099,76.2653711,police_station,,,
"Police Station, Ollur",10.4747716,76.2420443,police_station,,,
chaitra cafe,19.03502,73.1009651,police_station,,,+9190666227898
Police Station Pandhurna,21.5945351,78.5251411,police_station,,,
Navi Peth Police Station,17.6755729,75.8988912,police_station,,,
Akluj Polic Station,17.8893416,75.0230872,police_station,,,
Police Station,10.1512194,76.3383666,police_station,,,
Ajni Police Station,21.1230263,79.0974758,police_station,,,
Odhav police station (new building),23.0259396,72.6724978,police_station,,,
Airport Police Station,10.7588027,78.7077417,police_station,,,
Abids traffic police station,17.3889758,78.4761757,police_station,,,
Hulimavu Traffic Police Station,12.8565752,77.5889783,police_station,,,080 2294 3030
"Immigration Check Post, Sonauli",27.4719594,83.4656038,police_station,,,
Chennamanakere Achukattu Police Station,12.9301326,77.5606044,police_station,,,080 2294 3483
G4 Vandavasi north police station,12.5068712,79.6045373,police_station,,,+(91)4427272232
Ananthapur 3 Town Police Station,14.6944081,77.5981275,police_station,,,8554-275877
superitendent of police,12.8224828,79.6973133,police_station,,,+(91)4427272232
Walajabad police station,12.7937471,79.8162163,police_station,,,+(91)4427256044
c3 police station Manimangalam,12.9163861,80.0398418,police_station,,,+(91)4427178131
Police Station - Malkapur City,20.8887723,76.2055964,police_station,,,
Cheyur Police station,12.3517152,79.9975084,police_station,,,+(91)4427531124
sup,12.822712,79.6949704,police_station,,,
anna nagar police superitendent station,12.8237772,79.6974277,police_station,,,+(91)9952495164
Chengalpatu AwPolice Station,12.6971397,79.9771626,police_station,,,+91(044)‚Äì 27432101
Bellanduru Traffic Police Station,12.9217846,77.6616311,police_station,,,
Guduvancherry Police Station,12.8439226,80.0615864,police_station,,,+91 (044 )‚Äì 27465331
Baluchetty Chatram Police station,12.8768075,79.6160108,police_station,,,+91(044)27465331
Melmaruvathur Police Station,12.4316923,79.831919,police_station,,,044 ‚Äì 27529241
Mathur Police Station,12.3828409,78.4125514,police_station,,,044 ‚Äì 27537728
Otteri Police Station,13.0874523,80.2458786,police_station,,,044 ‚Äì 22750987
Tilakwadi Police Station,15.8359392,74.5015214,police_station,,,080 2294 3346
Belgaum Rural Police Station,15.8326557,74.5122929,police_station,,,0831 240 5252
Camp Police Station,15.8548335,74.5042006,police_station,,,0831 240 5234
Athani Police Station,16.7267221,75.0602213,police_station,,,082892 51133
Khade Bazar Police Station,15.8574546,74.5137166,police_station,,,0831 240 5232
APMC Police Station,15.8839399,74.5086564,police_station,,,0831 240 5232
Udyambag Police Station,15.8149752,74.4912244,police_station,,,0831 240 5238
DDU Nagar Police station,21.2515488,81.5954033,police_station,,,+917712262501
Police Station,15.8396242,74.5096425,police_station,,,(91)-831-2405244
Palur Police station,12.7676644,79.9034914,police_station,,,044-27437100
Devaraja Police Station,12.3129194,76.6494717,police_station,,,0821-2418306
Police Station,12.308414,76.667319,police_station,,,0821-2418308
Udayagiri Police Station,12.3266904,76.6809447,police_station,,,0821-2418309
Mandi Police Station,12.3163407,76.6542216,police_station,,,0821-2418313
Ammapet B 6  Police Station,11.6530298,78.1617852,police_station,,,
Metagalli Police Station,12.3471406,76.630433,police_station,,,0821-2418315
Assistant Commissioner of Police Krishnaraja Division,12.2921389,76.6475938,police_station,,,8212418518
Ammapet B 6  Police Station,11.6590023,78.1816097,police_station,,,+91427-2262610
Annadanapatti B 4 Police Station,11.6424031,78.1404779,police_station,,,+91427-2270513
Attayampati C 1 Police Station,11.5313534,78.050867,police_station,,,+91427-2471230
Hastampatti B 7 Police Station,11.6778088,78.1645798,police_station,,,+91427-2412615
Bangarupalyam Police Station,13.1963861,78.9145584,police_station,,,+91 8573280233
Kannankurichi B 8 Police Station,11.6967465,78.1769759,police_station,,,+91427-2402660
Chandragiri Police Station,13.5888024,79.3175846,police_station,,,+91 8772289020
Chittoor 1 Town Police Station,13.2167629,79.1010473,police_station,,,+91944079707
Karipatti Police Station,9.6771157,78.1034294,police_station,,,+91427-2482235
Police Station Mandya West,12.5270292,76.8907645,police_station,,,9844771982
Kitchipalayam B 5 Police Station,11.6472529,78.1702578,police_station,,,
Gaangavaram Police Station,13.2195594,78.7354104,police_station,,,+9194407 96735
Gudipala Police Station,13.0925681,79.133443,police_station,,,+91 8572257733
Mallur Police Station,11.5452987,78.1428828,police_station,,,+91427-2422239
Basaralu Police Station,12.7057359,76.8172991,police_station,,,08232 276634
K V Palli Police Station,13.8069305,78.9027464,police_station,,,+91 8584282633
Palapatti B 10 Police Station,11.6699556,78.1394849,police_station,,,+91427-2443839
Police Station,12.7496431,78.3454026,police_station,,,+91 8570255133
Belakavadi Police Station,12.2565176,77.1224843,police_station,,,08232 240034
Madanapalli 1 Town Police Station,13.5561231,78.4969407,police_station,,,+91 8571222033
Madanapalli 2 Town Police Station,13.5579971,78.5090533,police_station,,,+91 8571222109
MR Palli Police Station,13.6105795,79.4189638,police_station,,,+91 8772289014
Panamarathupatti Police Station,11.5614945,78.1639663,police_station,,,+91427-2443839
Bellur Police Station,12.9814367,76.7357493,police_station,,,08232 287535
Nagiri Police Station,13.3207159,79.5854366,police_station,,,+91 8577235333
Narayanavanam Police Station,13.4235342,79.5884195,police_station,,,+91 8577221333
Piler Police Station,13.6553381,78.9357113,police_station,,,+91 8584244233
Police Control Room Police Station,11.6425701,78.1459515,police_station,,,+91427-2210002
J1 Police Station,13.4393831,79.5521821,police_station,,,+91 8577222333
Suramangalam Police Station,11.6708007,78.1168863,police_station,,,+91427-2447315
Shevapet B 2 Police Station,11.6514754,78.1522608,police_station,,,+91427-2211601
K M Doddi Police Station,12.4892432,77.0352446,police_station,,,08232 235332
Veeranam Police Station,11.6862224,78.2128652,police_station,,Salem,+91427-2240735
Rompicherlal Police Station,16.2096542,79.9087503,police_station,,,+91 8584288233
Women Ammapet W 2 Police Station,11.6590617,78.1818592,police_station,,,+91427-2263800
Tiruchanur Police Station,13.607804,79.4489953,police_station,,,+91 8772289015
Women Salem Town W 1 Police Station,11.654013,78.1601008,police_station,,,+91427-2264509
Tirupathi West Police Station,13.6348619,79.4153527,police_station,,,+91 8772289008
Maddur Police Station,12.5871514,77.0416988,police_station,,,8232232170
Tirupati Crime  Police Station,13.6335909,79.4135251,police_station,,,+91 8577289433
Tirupati Urban SP Office,13.6302056,79.4123393,police_station,,,+91 8576275533
SV University Police Station,13.6259378,79.4004217,police_station,,,+91 8577284433
Roza Police Station,17.3461141,76.8519503,police_station,,,8472263820
Annavarm Police Station,17.2848462,82.4057539,police_station,,,+91 8868238100
Anakapalli Police Station,17.6858653,82.9884187,police_station,,,+91 9440796084
Dudda Police Station,13.0861329,76.2047604,police_station,,,91-8172-223935
Gopalapatnam Police Station,17.7442772,83.2257172,police_station,,,+91 891 252 0933
Parawada Police Station,17.6296866,83.0909269,police_station,,,"+91 8933229533 ,+91 9440796082"
Police Station,15.1380929,76.9250859,police_station,,,91-8392-272022
Police station,15.1938514,76.6669981,police_station,,,91-8395-250100
Chodavaram Police Station,17.8257435,82.9386716,police_station,,,"+91 8932245033 , +91 9440796090"
Police Station,16.4150393,76.9291808,police_station,,,91-8531-260333
Butchiyyapeta Police Station,17.790529,82.8749406,police_station,,,"+91 8932222633 , +91 9440904211"
Karatagi Police Station,15.6006289,76.6580145,police_station,,,08533 275331
S Kota Police Station,18.1141818,83.138363,police_station,,,"+91 8936249833 , +91 9440904223"
Golugonda Police Station,17.679553,82.4681388,police_station,,,"+91 8932232433 , +91 9440904215"
Bommuru Police Station,17.0137329,81.8087082,police_station,,,"+91 8935251266 , +91 9440904228"
Kasimkota Police Station,17.6695914,82.9664591,police_station,,,"+91 8924220799 , +91 9440796088"
Urla Police station,21.3083942,81.6192122,police_station,,,
Amanaka Police station,21.2507507,81.5876752,police_station,,,
Tikrapara Police station,21.2206286,81.6415295,police_station,,,
police station s11,12.9254171,80.1128984,police_station,,,044 2345 2769
Somangalam police station,12.9459306,80.0355638,police_station,,,044 ‚Äì 27178126
Kothakota Police Station,16.3633348,77.9452971,police_station,,,"+91 8933229533 , +91 9849900201"
thiroporur police station,12.7236799,80.1887292,police_station,,,044 ‚Äì 27446221
Uthiranerur police station,12.6162879,79.7537657,police_station,,,044 ‚Äì 27272232
Koyyuru Police Station,17.6485055,82.2213589,police_station,,,"+91 8937238433 , +91 9440904241"
Acirapakkam Police Station,12.403834,79.8174314,police_station,,,044 ‚Äì 27522338
Sriperumbudur Police Station,12.9637993,79.9491741,police_station,,,+(91)4427162224
NKP Police Station,17.4089028,82.7161181,police_station,,,"+981 8931227433 , +91 9440796105"
Nangad Police Station,15.5761406,74.5693403,police_station,,,(91)-8336-236633
Police Station Ramadurg,15.9492587,75.2947994,police_station,,,+91 8335242333
Police Station Ghatpradha,16.1691875,74.8213498,police_station,,,+91 8312286233
Marihal Police Station,15.8814487,74.6641596,police_station,,,0831 2405239
Police Station Mudalagi,16.3374098,74.9641359,police_station,,,+91 8312251333
Bescom Vilagence Police Station,15.885045,74.5254564,police_station,,,081562 74304
Electronics City Traffic Police Station,12.8394292,77.661459,police_station,,,080 2294 3718
HAL Traffic Police Station,12.9583981,77.667597,police_station,,,080 2294 3115
Upparpet Traffic Police Station,12.9744833,77.5748342,police_station,,,080 2294 2665
Traffic Police Station,12.9724461,77.5386676,police_station,,,080 2294 2809
One town Police Station,14.6780743,77.6085018,police_station,,,"08554-274033 , 9440796805"
Cheyyar Police Station,12.6667419,79.540611,police_station,,,04182 224 644
J.J Nagar Police Booth (V3),13.0876952,80.1878894,police_station,,,N/A
Anna Nagar Police Station,9.9354414,78.1442838,police_station,,,"+(91)9952495164,"
D6 Police Station,12.7890654,80.0309867,police_station,,,044 2745 272
Police Station,12.432521,79.8317603,police_station,,,044 2752 9100
Orathi Police Station,12.3806752,79.6928343,police_station,,,044 ‚Äì 27549938
Thalambur Police Station,12.8469006,80.2271771,police_station,,,044-27437100
Police Station,10.9875675,76.963933,police_station,,,
M.R palli Police Station,13.6158101,79.4168514,police_station,,,
Thalaghattapura Police Station,12.8689461,77.5362854,police_station,,,
Haveri Police Station,14.7929535,75.3965141,police_station,,,
Vehicle checking post,31.6035774,74.58166,police_station,,,
Police station,30.1281763,78.3225254,police_station,,,
Cerebtec Technologies pvt.ltd,9.9960152,76.2891741,police_station,,,
Digital Printer,21.1689912,72.8300864,police_station,,,00912612631253
Temple police station,9.2893241,79.3185256,police_station,,,
Police Station,12.9081741,77.6368327,police_station,,,
Sulav suchaloy,23.7850489,91.259853,police_station,,,
Police Station,28.2659235,95.6161074,police_station,,,
Hanspura/Dehgam naka police station,23.08872,72.686768,police_station,,,
Police Station,23.0724693,72.3634999,police_station,,,
Police Station -Malkapur Village,20.8869638,76.1914061,police_station,,,
Bidkin Police Station,19.705604,75.3024097,police_station,,,
Thozhuvanoor Desham,10.8938458,76.0569117,police_station,,,
City police line &  A divison police station,22.8132593,70.8358361,police_station,,,
Police Station,22.6757356,72.863415,police_station,,,
Help Booth,11.6187962,78.1446278,police_station,,,
Police Help Booth,11.6336943,78.1495015,police_station,,,
Annadhanapatti Police Station,11.6422125,78.1454129,police_station,,,
Byadarahalli Police Station,12.9867684,77.491253,police_station,,,
Police Station,30.7912162,76.5063113,police_station,,,
Police Station,11.454985,77.4270905,police_station,,,
Koraput police station,18.8131624,82.7115903,police_station,,,
City Kotwali,20.7078574,76.9945579,police_station,,,
Police Station,10.8266164,78.6946494,police_station,,,
West Police Station,9.5924531,77.9534737,police_station,,,
Crime branch,18.5449382,73.8448569,police_station,,,
"Police Station, Pookkoottumpadam",11.2431992,76.3053798,police_station,,,
Traffic Police Station,20.4483941,85.8973415,police_station,,,
Madhupatna Police Station,20.4486052,85.8973291,police_station,,,
Lalbhag Police Station,20.466397,85.8586259,police_station,,,
Athagarh Police Station,20.5216956,85.6295958,police_station,,,
Police Station,27.7922017,73.3422415,police_station,,,
Superintendent of police office,17.3286115,76.8383318,police_station,,,
Police Chowk,17.3420527,76.8377602,police_station,,,
"Police Station, Tanur",10.9784318,75.875805,police_station,,,
Police Chauki  Bangra,25.3121998,79.0033355,police_station,,,
Police Help Center,25.2603047,79.137982,police_station,,,
"Marine Police Station, Kanyakumari",8.0810373,77.5337547,police_station,,,
Gandhiganj police Chauki,25.2446262,79.1396328,police_station,,,
RPF Chauki,27.1576334,77.9902772,police_station,,,
Erode district check post,11.0528309,77.9221892,police_station,,,
POLICE STATION,30.9689991,74.9916861,police_station,,,
Police Help Center,25.3687331,78.8127749,police_station,,,
TSP Police Camp,10.7895835,78.6803313,police_station,,,
Gandhi Chowk Police Station,16.8412131,74.6372586,police_station,,,
Police station,9.9105636,78.1495967,police_station,,,
mauranipur Police Station,25.2468673,79.1368668,police_station,,,
Burha Police Outpost,26.4516961,91.7878252,police_station,,,
Ramgopalpet Police Station,17.4405614,78.4791247,police_station,,,
Police Station,14.7180824,76.7465676,police_station,,,
Reserve Police Lines jhansi,25.4475779,78.572412,police_station,,,
Police Post Sanjay Colony,28.4300428,77.2261104,police_station,,,+91-11-2665-2562;+91-11-2665-9611
Dhatir police station,28.1984677,77.2231949,police_station,,,
Police Station,19.2573838,72.8650937,police_station,,,
Police picket post,27.3483144,88.1917533,police_station,,,
Kaggalipura Police Station,12.8014297,77.5085132,police_station,,,
Police Station Sakrar,25.3496703,78.8915373,police_station,,,
Gujarat university police station,23.0347446,72.5405988,police_station,,,
Mirzapur City Kotwali,25.1495833,82.5681398,police_station,,,
Police Station,19.1695498,72.9591762,police_station,,,
Ahmedgarh,28.238216,78.132706,police_station,,,
Police Station,28.209348,78.248618,police_station,,,
Police Station,28.230671,78.189886,police_station,,,
Police Station,28.218636,78.225135,police_station,,,
Police Station,28.156526,78.61169,police_station,,,
Police Station,28.2380258,78.4438726,police_station,,,
Police Station,28.023001,79.129515,police_station,,,
Police Station,28.0355513,79.1365569,police_station,,,
Reserve Police,28.0256692,79.1300903,police_station,,,
Police Station,27.7093,78.73998,police_station,,,
Police Station,28.3081338,78.9364674,police_station,,,
Police Station,28.0228613,79.129325,police_station,,,
tajapur,27.355823,78.369129,police_station,,,
rajawli chawraha,27.33749,78.347701,police_station,,,
Police Station,27.271693,78.281078,police_station,,,
Rafiganj Police,24.8158926,84.631449,police_station,,,+91 9431822236
Viruthampattu police station,12.9534269,79.1414205,police_station,,,
Pallipuram Police Station,10.169685,76.1814648,police_station,,,
chhatri bagh police station,22.7100183,75.8464913,police_station,,,
annapurna police stand,22.6959031,75.8416431,police_station,,,
Police Station,22.5973616,75.6051108,police_station,,,
Gandhi Market Police Station,10.8161795,78.6944015,police_station,,,
Datia Police Lines,25.6466831,78.4607092,police_station,,,
Kotwali Jhansi city,25.4596874,78.5771042,police_station,,,
Kotwali City Tikamgarh,24.745105,78.8327338,police_station,,,
Police Parade ground,24.7553466,78.8296945,police_station,,,
Cuddalore old town station,11.7189488,79.7696453,police_station,,,
Police Station,26.7939541,80.9125252,police_station,,,
Amargarh chouki,26.4267771,76.6562052,police_station,,,
"City Palace,Karauli,Rajasthan",26.4963367,77.029795,police_station,,,
Police Station,26.727075,77.0298117,police_station,,,
"Police Station, Alathur",10.6472807,76.5381549,police_station,,,+914922222323
Arakkonam Town Police Station,13.0838611,79.6699654,police_station,,,
Police Station,30.8570343,77.7383434,police_station,,,
Kolar Police Station ,23.1701205,77.4165957,police_station,,,
Police Station,24.8526589,79.9231981,police_station,,,
Bidupur Thana,25.6432534,85.3333945,police_station,,,
Police Station ,23.2160954,77.4276641,police_station,,,
ShahPura Police Station ,23.1865101,77.4321822,police_station,,,
Police Station,19.1715844,72.956655,police_station,,,
Traffic Roundabout,28.9198133,79.9699247,police_station,,,
Maganpura Police Chowki,23.0805194,72.5785719,police_station,,,
Police Station,13.3083721,77.1482907,police_station,,,
Madannapet police station,17.3586406,78.5010532,police_station,,,
Hiramandalam Police Station,18.6739408,83.9497791,police_station,,,
Mahila Thana,23.2504034,77.4141613,police_station,,,
PHQ,23.2498836,77.4131788,police_station,,,
Nani Hills Police Station,13.3688849,77.6842015,police_station,,,
SubJail,9.2358669,76.5374721,police_station,,,
CircleInspectorOffice,9.2374159,76.5378978,police_station,,,
Traffic and DySp Office,9.1738296,76.5042613,police_station,,,
TraficPoliceOffice,9.1736264,76.5040988,police_station,,,
Warud Police Station ,21.4673146,78.2697699,police_station,,,
Saputara Police Station,20.5792511,73.7519774,police_station,,,
Yavatmal City Police Station,20.3903059,78.1325633,police_station,,,
Police Staion,28.4651874,77.0172873,police_station,,,
Sion (E) Police Station,19.0313226,72.8575876,police_station,,,
Police Station,14.7890926,75.9865093,police_station,,,
CISF barracks,12.4904347,80.1585715,police_station,,,
Police Station,10.9876225,78.3361429,police_station,,,
Kadampuliyur Police Station,11.7025877,79.5509081,police_station,,,
Sadar Police Station Fzr City,30.946946,74.6131787,police_station,,,
Checking,9.416961,77.0690624,police_station,,,
Police Lines Allahabad,25.4626401,81.8432613,police_station,,,
Police Station Frezarpura,20.9323762,77.7762628,police_station,,,
"Amravati City Kotwali, Police Station",20.9301627,77.7536656,police_station,,,
Police Station  Bhikangaon,21.8658653,75.9634348,police_station,,,
Nagpuri Gate Police Station,20.9363366,77.7444454,police_station,,,
Kholapuri Gate Police station,20.9340259,77.7389522,police_station,,,
Khanapara Police Station,26.1166579,91.8314579,police_station,,,
Police Station,26.570701,78.7897315,police_station,,,
Police Line Ground Bhind,26.5553478,78.8013574,police_station,,,
hatigaon police station,26.1266082,91.7868419,police_station,,,
SAF,26.4800489,77.9916464,police_station,,,
Police station,27.993946,73.3334857,police_station,,,
Women's Police Station,13.0027776,76.1076167,police_station,,,
Police Station,10.9407487,78.4199515,police_station,,,
Police Station,27.1731773,88.5306194,police_station,,,
Kadakkavoor Police station,8.6827522,76.7710623,police_station,,,
Police station Karchana,25.285155,81.935218,police_station,,,
"Sub Police Station, Patan",19.6311053,79.2010437,police_station,,,
"Police Station,Shakthykulangara (Kavand)",8.9236105,76.5574643,police_station,,,
Checkpost,32.3254509,77.2015538,police_station,,,
Kothapatnam police station,15.4470183,80.1597475,police_station,,,
Saikul Police Station,25.0594075,94.0259444,police_station,,,
Odanchatram,10.4874625,77.7512396,police_station,,,
Arundalpet Police Station,16.3039416,80.4377261,police_station,,,
Chebrole Police Station,16.2025985,80.5245854,police_station,,,
Local crime branch office,21.5286827,70.4586508,police_station,,,
TUNI URBAN POLICE STATION,17.3586314,82.5416401,police_station,,,
Rajrappa Police Station,23.5916421,85.6774507,police_station,,,
Matunga Police Station,19.0311163,72.8578787,police_station,,,
Ayad Police Station,24.5870571,73.7122867,police_station,,,
Shil Mhape Police Chouki,19.1147228,73.0343208,police_station,,,
Shil Daighar Police Station,19.1428227,73.046117,police_station,,,
Rabale Police Station,19.1463017,73.0009279,police_station,,,
District Commissioner Office,10.780682,78.7015497,police_station,,,
Police Assistance Booth,13.0699263,80.2714181,police_station,,,
Mandiyur Police Station,10.6596787,78.7408896,police_station,,,
District Police Office,10.7849428,78.699011,police_station,,,
Medical Police Station,28.9610399,77.7537353,police_station,,,
Police Aid,10.6137876,76.1956952,police_station,,,
Police Station,19.193452,73.3327477,police_station,,,
Kandivali Police Station,19.209583,72.8501404,police_station,,,
Palampur Traffic Police Station,32.1098126,76.5364455,police_station,,,
Marine Police Station,16.1459776,81.1790021,police_station,,,
Chilakalapudi Police Station,16.1908039,81.1451734,police_station,,,
Chakan Police Station,18.7594575,73.8633136,police_station,,,
Jejuri Police Station,18.2775545,74.1630866,police_station,,,
Jejuri Police Line,18.278302,74.1635497,police_station,,,
Daund Railway Police Station,18.4630835,74.5809817,police_station,,,
F R O,16.2976316,80.4272358,police_station,,,
payambalam police control room,11.8702119,75.3535649,police_station,,,
Check post,27.086519,88.4513409,police_station,,,
Khatauli Police Station,29.2754754,77.7315119,police_station,,,
Nyayapura Police Station,23.1705923,77.4168018,police_station,,,
Superintendent of police office,28.7944353,95.8988607,police_station,,,
9TH ITBP,28.9309743,95.9746621,police_station,,,
9TH ITBP,28.8352118,95.9608734,police_station,,,
Police Station Masturi,21.9910409,82.268568,police_station,,,
Police Station,11.9264949,76.9379787,police_station,,,
Office of DYSP,9.380302,76.5724099,police_station,,,
Police Station,25.6979586,85.1704561,police_station,,,
BAGDA POLICE STATION,23.1864132,88.8559576,police_station,,,
Police Quarters,11.7516072,79.7602431,police_station,,,
Cuddalore New Town Police Station,11.7513011,79.7610182,police_station,,,+91 94865 29887
Police Booth,13.1037724,80.0585425,police_station,,,
T9 Police Station Pattabiram,13.1222511,80.0624155,police_station,,,
J-10 Semmenchery Police Station,12.9008558,80.2280156,police_station,,,
High Grounds Traffic Police Station,12.9848902,77.5828907,police_station,,,
Police Station,10.7743667,79.1328753,police_station,,,
Tamil nadu special police battalion,10.7901246,78.6825796,police_station,,,
Ayyampettai Police Station,10.8905055,79.1890064,police_station,,,
Hasnabad Police Station,22.5689565,88.9160393,police_station,,,
Police Station,11.8338315,93.0295473,police_station,,,
Phoolbagan Police Sation,22.5753874,88.3920651,police_station,,,
Dattawadi Police Chowki,18.5010017,73.840267,police_station,,,+91-100
Mount Mary Police Chouki,19.051928,72.8232806,police_station,,,
Mangaon police station,18.2375251,73.2886231,police_station,,,
Police Booth,11.9365027,79.8346328,police_station,,,
"Police Station ,Meenangadi",11.6604006,76.1622129,police_station,,,
Kotwali Police Station,28.2892906,74.9663015,police_station,,,
Panamaram police station,11.7402537,76.0713276,police_station,,,
Colva police station,15.2779104,73.9265747,police_station,,,
"Police station,Ayiroor",8.7685285,76.7295132,police_station,,,
Police Post,27.0397,88.2650799,police_station,,,
Police Station,13.4191708,75.2529999,police_station,,,
Police Baberu,25.549502,80.69741,police_station,,,
Police station,25.2161951,80.917238,police_station,,,
Kondhwa police station,18.4659808,73.8904599,police_station,,,
New Khursipar Bhilai Police Station,21.2076444,81.4005154,police_station,,,
Pattabhipuram police station,16.3052237,80.423819,police_station,,,
Police Station,23.4573052,77.6765744,police_station,,,
Police Station,16.8290223,75.7148464,police_station,,,
Police Aid Post,8.7361129,76.7038815,police_station,,,
Umred Police Station,20.8473413,79.3260153,police_station,,,
Police Station,28.5992969,94.1359827,police_station,,,
Karunya nagar police station,10.941951,76.7536848,police_station,,,
Police Station,20.0900808,75.4357539,police_station,,,
Police Booth,13.0149758,80.1816427,police_station,,,
Women police station,17.4382434,78.3630264,police_station,,,9494731100
Gachibowli traffic police station,17.4458549,78.3519936,police_station,,,
Railway Police Force Out Post,32.0813591,76.5151865,police_station,,,
Joki Gaun,26.6412627,86.0689261,police_station,,,
Police Station,28.6891306,77.2217498,police_station,,,
2 Town Police Station,16.2385179,80.045045,police_station,,,086472 22333
Police Station,18.9978829,72.837489,police_station,,,
Police thana khajrana,22.7358525,75.9145323,police_station,,,
Police station khajrana,22.73595,75.9145268,police_station,,,
Pipraun,26.6015326,85.936166,police_station,,,
Umgaon,26.6113742,85.9646725,police_station,,,
Umgaon main chowk,26.6126612,85.9699933,police_station,,,
Police station,20.2754976,73.0031368,police_station,,,
Police Station,15.5415568,73.7612503,police_station,,,
Office of the Superintendent of Police,27.5027858,95.3282384,police_station,,,
Border crossing,24.2379038,94.3006506,police_station,,,
Police Station,26.9177909,75.7950769,police_station,,,
Police Station,17.9239173,73.6589614,police_station,,,
BKC Police Station,19.0645147,72.8603409,police_station,,,
Sp office vikarabad,17.3313388,77.9160514,police_station,,,
POLICE STATION,18.7734466,84.0970669,police_station,,,
Police station Surya nagar,28.66921,77.331314,police_station,,,
Medipally Police Station,17.407588,78.6011092,police_station,,,
Janamythri Police Station,8.4961923,76.9785637,police_station,,,
Woman Police Station,31.7033484,76.943878,police_station,,,
Police Lines Mandi,31.7058375,76.9357126,police_station,,,
Udalguri Police Station,26.7490438,92.0978302,police_station,,,
Prohibition Check Post,11.9827095,79.8450868,police_station,,,
Crime Branch CID,11.9349494,79.8160521,police_station,,,
Anti Human Trafficking,11.9348978,79.8160403,police_station,,,
Versova Police Station,19.1429738,72.8044882,police_station,,,
Karimnagar commisionarate,18.4357584,79.127741,police_station,,,
1 Town Police Station,18.4312863,79.1314445,police_station,,,
Rural Police station,18.4322086,79.1378518,police_station,,,
Pahadishareef Police Station,17.2641465,78.4741378,police_station,,,
Ranip Police Station,23.0806075,72.5779962,police_station,,,
Saphale police station,19.5788495,72.8215237,police_station,,,
Samatanagar Police Station,19.1998393,72.8614152,police_station,,,
NM Joshi Marg Police Station,18.9914132,72.8309771,police_station,,,
Palam Police Station,19.0131145,76.9514338,police_station,,,
B6 Kandamangalam Police Station,11.9189716,79.6785747,police_station,,,
District Reserve forces,19.3560531,84.9867296,police_station,,,
Police Station,31.3393294,76.7614465,police_station,,,+91-94591-00100;+91-19-7822-4288
Swarghat Police Station,31.2290057,76.7172436,police_station,,,
Kunnamangalam Police Station,11.3057105,75.8790061,police_station,,,
"Crime Branch, Kozhikode",11.2536596,75.7872164,police_station,,,
Police Station,28.6301852,77.4340032,police_station,,,
Laimekuri Police Outpost,27.7513277,95.0743345,police_station,,,
JC Nagara Police Station,13.0057165,77.5934124,police_station,,,
IRB 6th BN POLICE KHORDHA,20.1895601,85.5677644,police_station,,,
"Police Station,Thiruvalla",9.3807163,76.5697394,police_station,,,+91-469 2738100
NEW S P OFFICE KHORDHA,20.164667,85.6138748,police_station,,,
SADAR POLICE STATION KHORDHA,20.1431966,85.5980672,police_station,,,
Mayur Vihar Police Chowki,30.3400573,78.0694594,police_station,,,
G3,10.3406203,79.3854808,police_station,,,
Excise Department. Khordha,20.1690158,85.6133034,police_station,,,
Police Station Hazrat Nizamudin Railway station,28.5879796,77.2536138,police_station,,,
Police Dog Squad Thrissur,10.5561828,76.2265405,police_station,,,
"Office of The Deputy Commandant, Dist. Armed Reserve, Ramavarmapuram,Thrissur",10.5565513,76.2272391,police_station,,,
Chalakudy Police Station,10.3015307,76.3393046,police_station,,,
Subsidiary Central Police Canteen,10.5602389,76.235732,police_station,,,
Sub Inspectors Quarters,10.5602378,76.235584,police_station,,,
Sri City Police,13.5597868,80.0230418,police_station,,,
Police Security Office,8.5197398,76.9538461,police_station,,,
Highway Patrol,13.6455682,79.5217956,police_station,,,
Police Station,34.2250222,74.7761044,police_station,,,
Police Station,34.0851489,74.5052227,police_station,,,
Police Station,34.0780552,74.7953205,police_station,,,
Traffic Police Head Quarter,34.0739168,74.8177936,police_station,,,
Police Station,34.0532623,74.3987924,police_station,,,
All women police station,11.0821749,76.9411896,police_station,,,
Police Station Karol Bagh,28.652398,77.1930248,police_station,,,+91-11-2872-6870;+91-11-2872-1115
Police Station,17.9499784,73.8872587,police_station,,,
Police Station Chamorshi,19.9445772,79.8913349,police_station,,,
traffic polish station,21.3011125,81.6362925,police_station,,,
Amanaka Police Station,21.2518357,81.5997597,police_station,,,
PSI quarters,12.4077705,76.5777011,police_station,,,
Police Station - Annamalai Nagar,11.3869698,79.7111529,police_station,,,
"Police Station, Mahua",25.8121224,85.3967771,police_station,,,
Sakra Police Station,25.9768361,85.562313,police_station,,,
Bihar Sainya Police - 6,26.1161209,85.4159735,police_station,,,
Aadarsh Nagar Thana,26.1199402,85.3861255,police_station,,,
Traffic Police Chowky,19.163976,72.9374814,police_station,,,
Railway Police,28.8903772,76.5808731,police_station,,,
Police Station Shopian,33.7198072,74.8328069,police_station,,,
Police booth,11.9489571,79.8232023,police_station,,,
Police Station,28.8801395,76.5860752,police_station,,,
Gandhi Maidan Police Station,25.6156365,85.1484754,police_station,,,+91-0612-2673-519;+91-94318-22165
Nelamangala Traffic Police Station,13.0927242,77.391214,police_station,,,
Mangaldas Police Chowki,18.5339866,73.8789046,police_station,,,
Police Station,23.2438143,77.4107398,police_station,,,
4th APBn,26.1428801,91.7548577,police_station,,,
Police Station New Delhi Railway Station,28.6437003,77.2189266,police_station,,,
Kinhavali Police Station,19.3523005,73.4811619,police_station,,,
Park Street Police Station,22.5516265,88.3564067,police_station,,,
Police Post,28.635912,77.2222854,police_station,,,
Bhagaduttapur Police station,26.1338779,91.7666261,police_station,,,
Hill Palace Police Camp,9.9536223,76.360905,police_station,,,
Armed Reserve Police Parade Ground,9.9547228,76.3610281,police_station,,,
Paramathi velur police station,11.1098949,78.0096057,police_station,,,
"Police Station, Ghot",19.8154956,79.9847023,police_station,,,
Police Aid Post Kakkayam,11.5523281,75.8940241,police_station,,,
Jedarpalayam Police station,11.1496887,77.8921407,police_station,,,
Sinthee Police Station,22.6252145,88.3827397,police_station,,,
Kangeyam Police Station,11.0011411,77.562688,police_station,,,
police chowki,26.1445706,79.3360516,police_station,,,
Asif Nagar Traffic Police Station,17.3989925,78.4581018,police_station,,,
Police Post Majnu ka Tila,28.6965167,77.2270376,police_station,,,
Police Station,10.3828047,78.8189833,police_station,,,
Ghandinagar police station,9.6311246,76.5254446,police_station,,,+91 4812597210
Police Station,10.0741754,76.3002137,police_station,,,
Police Station,16.0732095,80.3292635,police_station,,,
Police Station Mauda,21.1456657,79.3972532,police_station,,,
police aid post,11.625669,75.6288086,police_station,,,
Police Station,25.7207227,94.0424353,police_station,,,
South Police Station,25.6531047,94.101648,police_station,,,
North Police Station,25.6757672,94.1093023,police_station,,,
CRPF Camp,25.7063586,94.107951,police_station,,,
Police Station Pul Prahladpur,28.5019105,77.2907092,police_station,,,
Sreekrishnapuram Police Station,10.8924652,76.396065,police_station,,,
"Police station,umerga",17.8359792,76.6296263,police_station,,,
Police Station,17.3276128,78.6027803,police_station,,,
Police Station Jakhan,30.3631301,78.0683109,police_station,,,
FRO Foreign Registration Office,26.7586151,83.377179,police_station,,,
Landespolizei,18.8129198,82.7133951,police_station,,,
T-11 Tiruninravur Police Station,13.1251137,80.0286037,police_station,,,
Bhagwangola Police Station,24.3287886,88.3092752,police_station,,,
Police Station,12.3065121,78.0736555,police_station,,,
Police Station Khyala,28.6517663,77.0963462,police_station,,,
Bishnupur Police Station,24.6189982,93.7617655,police_station,,,
Police Station,24.7206693,93.8423371,police_station,,,
Kwakeithel Police Station,24.7868004,93.9211534,police_station,,,
Police Station,17.035421,81.564054,police_station,,,
esuguralla palli police base,17.7427395,81.1773842,police_station,,,
Police Station,28.613379,77.3171717,police_station,,,
Kundapura Rural PS,13.574157,74.7726483,police_station,,,
Gangolli Police Station,13.6867426,74.6606408,police_station,,,
Amasebail Police Sration,13.6031114,74.9486202,police_station,,,
Hosangadi Check Post,13.7072031,74.9617886,police_station,,,
"Office of the Deputy Superintendent of Police, Kundapura.",13.6183635,74.691436,police_station,,,
"CPI Office, Byndoor",13.8672749,74.6264411,police_station,,,
Byndoor Police Station.,13.8673034,74.6268014,police_station,,,
Police Station,10.5562871,77.364906,police_station,,,
Durga Puri Police Station,28.6894132,77.2915327,police_station,,,
Police Post PSRI Hospital,28.5318943,77.2252646,police_station,,,
Police Chowki,28.6862014,77.2920281,police_station,,,
Ngopa Police Station,23.8817744,93.212806,police_station,,,8974488992
Bankapura Police Station,14.9149508,75.2707904,police_station,,,
Dobbespet Police Station,13.2307461,77.2425462,police_station,,,
Kumarapattanam ps,14.5212054,75.7864689,police_station,,,
Velhe Police Station,18.2912199,73.6369313,police_station,,,
Police Station Dabri,28.6131514,77.0860753,police_station,,Dwarka District,
McLeodganj Police Station,32.2382329,76.3126877,police_station,,,
Police Station Shahpur,32.2114438,76.1844593,police_station,,,
Lamka Police Station,24.346327,93.6998479,police_station,,,
POICE CHOUKI YEDSHI,18.3226857,75.9633233,police_station,,,
Police Station Rai,28.9398554,77.097789,police_station,,,
Sikandar bazaar police station,23.0181182,76.7218171,police_station,,,
"Police Station,Chadayamangalam",8.8705473,76.8701911,police_station,,,
Military border,30.5355032,79.5676071,police_station,,,
Checkpoint,30.3766607,78.4832423,police_station,,,
Checkpoint,30.3790471,78.4767657,police_station,,,
CCC police station,18.8699975,79.489937,police_station,,,
Police aid post,8.5098272,76.8889062,police_station,,,
Police Station,18.2920517,83.8973955,police_station,,,
l. police station,19.1941231,83.4104104,police_station,,,
Railway Police Force RPF,26.0976448,87.9486948,police_station,Bihar,Kishanganj,
Police Station,26.8476468,80.9396569,police_station,,,
Sayeedabad Assistant Commissioner's Police Office,17.3628131,78.5040109,police_station,,,040-27854713; 9490616380
Police Station,26.0636175,75.0224907,police_station,,,
Police Booth,27.0443577,88.2678559,police_station,,,
Baijnath Police Station,32.0417993,76.6407707,police_station,,,
Police Station Sakti,22.0235182,82.9599273,police_station,,,
Police Station,23.8343536,91.3664951,police_station,,,
Long Island Police station,12.3652645,92.9204595,police_station,,,
Pattamadai Police Station,8.6671909,77.5840969,police_station,,,
Chilkalguda Police Station,17.4303106,78.513215,police_station,,,
‡≤ú‡≤ø‡≤≤‡≥ç‡≤≤‡≤æ ‡≤∏‡≤∂‡≤∏‡≥ç‡≤§‡≥ç‡≤∞ ‡≤Æ‡≥Ä‡≤∏‡≤≤‡≥Å ‡≤™‡≤°‡≥Ü,12.5184425,76.8837623,police_station,,,
Mandya rural police station,12.5193565,76.8846887,police_station,,,
Railway Police,13.0341367,80.2664405,police_station,,,
Cyber Crime,17.7213796,83.3187815,police_station,,,
Police Station,18.947264,79.0921743,police_station,,,
Kachiguda Traffic Police Station,17.382365,78.493562,police_station,,,91 40 2785 3776; 91 9490616084
Police Station Old Delhi Railway Station,28.6603874,77.2293263,police_station,,,
Pendurthi Police Station,17.8099057,83.207571,police_station,,,
Pamarru Police Station,16.3231409,80.9579194,police_station,,,
Police Station,18.5405603,77.8922376,police_station,,,
"Police Station, Sultanabad",18.5273746,79.3201659,police_station,,,
"Police Station, Nakrekal",17.1643548,79.4277445,police_station,,,
"Police Station, Ghanpur",18.3109524,79.8737196,police_station,,,
"Police Station, gadiguda",19.6144958,78.9107638,police_station,,,
District police head quarters,19.079745,78.361709,police_station,,,
"Police Station, Basanthnagar",18.7102414,79.4177344,police_station,,,
Tandur Police Station,17.2575705,77.588004,police_station,,,
Police Station,19.1103473,77.9623817,police_station,,,
Police Station,18.6245453,78.701116,police_station,,,
Vemulawada Police Station,18.46974,78.86433,police_station,,,
District Police Office,19.0799104,78.3620087,police_station,,,
Police Station,18.4689127,78.8657195,police_station,,,
Shahpur Police Station,15.8381587,74.5178764,police_station,,,
Police Station - Asifabad,19.359228,79.292346,police_station,,,
Peddapalli Police Station,18.6100408,79.3744828,police_station,,,
Gurrampod Police Station,16.865855,79.108171,police_station,,,
Police Station Yadagirigutta,17.5806992,78.9465849,police_station,,,
Kasipet Police Station,19.024097,79.481174,police_station,,,
ALER POLICE STATION,17.6445149,79.0471147,police_station,,,
Town Police Station,16.9223676,80.3629484,police_station,,,
Nakrekal Police Station,17.1645076,79.4278173,police_station,,,
Police Station,17.987851,79.45062,police_station,,,
Police Station,16.623267,77.84066,police_station,,,
Police Commissioner Office,15.8703385,74.5171926,police_station,,,
Police Booth,12.9931857,80.2674928,police_station,,,
Market Police Station,15.8624322,74.5197299,police_station,,,
Alagappapuram Police Station,10.0807228,78.7936167,police_station,,,
North Police Station,10.0754828,78.7791774,police_station,,,
Police Station,10.0790892,78.7804416,police_station,,,
Chakdaha Police Station,23.0766746,88.5280196,police_station,,,03473 242 022
Ghall Khurd Police Station,30.862404,74.8112781,police_station,,,
Police Station,10.0939554,78.7882948,police_station,,,
Janamaithri Police Station Aryanad,8.5799214,77.0865705,police_station,,,
Aalo Police Station,28.1731336,94.8000156,police_station,,,
"Police Station, Ranni",9.3748212,76.7783443,police_station,,,
Ranipool Women Police Station,27.2937855,88.5907823,police_station,,,
Police Checkpoint,34.0473686,77.9303581,police_station,,,
Police Boot Arithang,27.3316847,88.6102636,police_station,,,
Bomdila Police Station,27.2653513,92.4220829,police_station,,,
Police Station,26.9320929,75.8176035,police_station,,,
Nongmensong Police Outpost,25.5826709,91.9073519,police_station,,,
Rynjah Police Station,25.568294,91.9134234,police_station,,,
Lumdiengjri Police Station,25.5803352,91.8728956,police_station,,,
Police Station Vaishali Nagar,26.9153921,75.7355845,police_station,,,
Sodala Thana,26.9019038,75.7763672,police_station,,,
Kamshet Police Station,18.7624644,73.5590423,police_station,,,
Chitrakoot police Station,26.8994432,75.7342969,police_station,,,
Majuli Police Station,26.9447337,94.1645906,police_station,,,
Ramamurthy Nagar Police Station,13.0041876,77.6659393,police_station,,,
Cherthala Police station,9.6778979,76.3381305,police_station,,,
Darsi police station,15.7699308,79.6803751,police_station,,,
Atmakur police station,18.0757852,79.7381871,police_station,,,
"Police station,Ponmudi",8.7573835,77.1158427,police_station,,,
Police Station,18.6478898,73.8425166,police_station,,,
Tulsibari Police Out Post,26.5042854,91.5962308,police_station,,,
Check post - foreigners registration,24.8076074,93.111759,police_station,,,
Police Station,26.2653297,72.9927646,police_station,,,
"Border, no acces for foreigners",25.1746253,90.5215882,police_station,,,
